[{
  "country": "Thailand",
  "latitude": 13.7563309,
  "longitude": 100.5017651,
  "city": "Bangkok"
},
{
  "country": "Thailand",
  "latitude": 18.7883439,
  "longitude": 98.98530079999999,
  "city": "Chiang Mai"
},
{
  "country": "Thailand",
  "latitude": 7.8804479,
  "longitude": 98.3922504,
  "city": "Phuket"
},
{
  "country": "Thailand",
  "latitude": 8.0854803,
  "longitude": 98.9062856,
  "city": "Krabi"
},
{
  "country": "Netherlands",
  "latitude": 52.3675734,
  "longitude": 4.9041389,
  "city": "Amsterdam"
},
{
  "country": "Thailand",
  "latitude": 9.731875299999999,
  "longitude": 100.0135929,
  "city": "Ko Pha Ngan"
},
{
  "country": "Thailand",
  "latitude": 9.5120168,
  "longitude": 100.0135929,
  "city": "Ko Samui"
},
{
  "country": "Thailand",
  "latitude": 10.0956102,
  "longitude": 99.84039589999999,
  "city": "Ko Tao"
},
{
  "country": "Vietnam",
  "latitude": 21.0277644,
  "longitude": 105.8341598,
  "city": "Hanoi"
},
{
  "country": "Singapore",
  "latitude": 1.352083,
  "longitude": 103.819836,
  "city": "Singapore"
},
{
  "country": "Japan",
  "latitude": 35.6761919,
  "longitude": 139.6503106,
  "city": "Tokyo"
},
{
  "country": "Vietnam",
  "latitude": 10.8230989,
  "longitude": 106.6296638,
  "city": "Ho Chi Minh City"
},
{
  "country": "United Kingdom",
  "latitude": 51.5072178,
  "longitude": -0.1275862,
  "city": "London"
},
{
  "country": "Italy",
  "latitude": 41.9027835,
  "longitude": 12.4963655,
  "city": "Rome"
},
{
  "country": "Thailand",
  "latitude": 7.740738,
  "longitude": 98.77841,
  "city": "Phi Phi Islands"
},
{
  "country": "Thailand",
  "latitude": 8.977713399999999,
  "longitude": 98.63818789999999,
  "city": "Khao Sok National Park"
},
{
  "country": "Thailand",
  "latitude": 19.3582191,
  "longitude": 98.44048629999999,
  "city": "Pai"
},
{
  "country": "France",
  "latitude": 48.856614,
  "longitude": 2.3522219,
  "city": "Paris"
},
{
  "country": "Malaysia",
  "latitude": 3.1319197,
  "longitude": 101.6840589,
  "city": "Federal Territory of Kuala Lumpur"
},
{
  "country": "Italy",
  "latitude": 43.7695604,
  "longitude": 11.2558136,
  "city": "Florence"
},
{
  "country": "Italy",
  "latitude": 45.4642035,
  "longitude": 9.189982,
  "city": "Milan"
},
{
  "country": "Indonesia",
  "latitude": -8.5068536,
  "longitude": 115.2624778,
  "city": "Ubud"
},
{
  "country": "Vietnam",
  "latitude": 15.8800584,
  "longitude": 108.3380469,
  "city": "Hội An"
},
{
  "country": "Thailand",
  "latitude": 8.935833299999999,
  "longitude": 98.4561111,
  "city": "Khao Sok"
},
{
  "country": "Italy",
  "latitude": 45.4408474,
  "longitude": 12.3155151,
  "city": "Venice"
},
{
  "country": "Spain",
  "latitude": 41.3873974,
  "longitude": 2.168568,
  "city": "Barcelona"
},
{
  "country": "Japan",
  "latitude": 34.6937249,
  "longitude": 135.5022535,
  "city": "Osaka"
},
{
  "country": "Indonesia",
  "latitude": -8.6478175,
  "longitude": 115.1385192,
  "city": "Canggu"
},
{
  "country": "Indonesia",
  "latitude": -8.4095178,
  "longitude": 115.188916,
  "city": "Bali"
},
{
  "country": "Cambodia",
  "latitude": 13.3632533,
  "longitude": 103.856403,
  "city": "Krong Siem Reap"
},
{
  "country": "Portugal",
  "latitude": 38.7222524,
  "longitude": -9.1393366,
  "city": "Lisbon"
},
{
  "country": "Thailand",
  "latitude": 9.134194899999999,
  "longitude": 99.3334198,
  "city": "Surat Thani"
},
{
  "country": "Japan",
  "latitude": 35.011564,
  "longitude": 135.7681489,
  "city": "Kyoto"
},
{
  "country": "Greece",
  "latitude": 37.9838096,
  "longitude": 23.7275388,
  "city": "Athens"
},
{
  "country": "Mexico",
  "latitude": 21.161908,
  "longitude": -86.8515279,
  "city": "Cancún"
},
{
  "country": "Vietnam",
  "latitude": 20.2506149,
  "longitude": 105.9744536,
  "city": "Ninh Bình"
},
{
  "country": "Cambodia",
  "latitude": 11.5563738,
  "longitude": 104.9282099,
  "city": "Phnom Penh"
},
{
  "country": "Thailand",
  "latitude": 14.3692325,
  "longitude": 100.5876634,
  "city": "Phra Nakhon Si Ayutthaya"
},
{
  "country": "Hungary",
  "latitude": 47.497912,
  "longitude": 19.040235,
  "city": "Budapest"
},
{
  "country": "Thailand",
  "latitude": 14.1011393,
  "longitude": 99.4179431,
  "city": "Kanchanaburi"
},
{
  "country": "Italy",
  "latitude": 40.8517746,
  "longitude": 14.2681244,
  "city": "Naples"
},
{
  "country": "Vietnam",
  "latitude": 21.027964,
  "longitude": 105.8510132,
  "city": "Hoàn Kiếm"
},
{
  "country": "Colombia",
  "latitude": 4.710988599999999,
  "longitude": -74.072092,
  "city": "Bogotá"
},
{
  "country": "Croatia",
  "latitude": 43.5147118,
  "longitude": 16.4435148,
  "city": "Split"
},
{
  "country": "Germany",
  "latitude": 52.52000659999999,
  "longitude": 13.404954,
  "city": "Berlin"
},
{
  "country": "Vietnam",
  "latitude": 16.4637117,
  "longitude": 107.5908628,
  "city": "Hue"
},
{
  "country": "Austria",
  "latitude": 48.2081743,
  "longitude": 16.3738189,
  "city": "Vienna"
},
{
  "country": "United States",
  "latitude": 40.7127753,
  "longitude": -74.0059728,
  "city": "New York"
},
{
  "country": "United States",
  "latitude": 37.7749295,
  "longitude": -122.4194155,
  "city": "San Francisco"
},
{
  "country": "United States",
  "latitude": 34.0522342,
  "longitude": -118.2436849,
  "city": "Los Angeles"
},
{
  "country": "Indonesia",
  "latitude": -6.2087634,
  "longitude": 106.845599,
  "city": "Jakarta"
},
{
  "country": "Philippines",
  "latitude": 14.5995124,
  "longitude": 120.9842195,
  "city": "Manila"
},
{
  "country": "United States",
  "latitude": 36.171563,
  "longitude": -115.1391009,
  "city": "Las Vegas"
},
{
  "country": "Thailand",
  "latitude": 19.9104798,
  "longitude": 99.840576,
  "city": "Mueang Chiang Rai"
},
{
  "country": "Indonesia",
  "latitude": -8.348291699999999,
  "longitude": 116.0384335,
  "city": "Gili Trawangan"
},
{
  "country": "Australia",
  "latitude": -33.8688197,
  "longitude": 151.2092955,
  "city": "Sydney"
},
{
  "country": "Spain",
  "latitude": 40.4167754,
  "longitude": -3.7037902,
  "city": "Madrid"
},
{
  "country": "Thailand",
  "latitude": 9.5214157,
  "longitude": 100.0482144,
  "city": "Koh Samui"
},
{
  "country": "Colombia",
  "latitude": 6.2476376,
  "longitude": -75.56581530000001,
  "city": "Medellín"
},
{
  "country": "Thailand",
  "latitude": 7.624367699999999,
  "longitude": 99.0792263,
  "city": "Ko Lanta"
},
{
  "country": "Spain",
  "latitude": 37.6156944,
  "longitude": -0.9892242,
  "city": "Cartagena"
},
{
  "country": "Czechia",
  "latitude": 50.0755381,
  "longitude": 14.4378005,
  "city": "Prague"
},
{
  "country": "Belgium",
  "latitude": 50.8476424,
  "longitude": 4.3571696,
  "city": "Brussels"
},
{
  "country": "France",
  "latitude": 43.7101728,
  "longitude": 7.261953200000001,
  "city": "Nice"
},
{
  "country": "Vietnam",
  "latitude": 22.3363608,
  "longitude": 103.8437852,
  "city": "Sa Pa"
},
{
  "country": "Thailand",
  "latitude": 8.0414921,
  "longitude": 98.8366162,
  "city": "Ao Nang"
},
{
  "country": "Laos",
  "latitude": 19.883285,
  "longitude": 102.1387166,
  "city": "Luang Prabang"
},
{
  "country": "Vietnam",
  "latitude": 20.9711977,
  "longitude": 107.0448069,
  "city": "Hạ Long"
},
{
  "country": "Vietnam",
  "latitude": 16.0544563,
  "longitude": 108.0717219,
  "city": "Da Nang"
},
{
  "country": "Germany",
  "latitude": 48.1351253,
  "longitude": 11.5819806,
  "city": "Munich"
},
{
  "country": "Philippines",
  "latitude": 10.3156992,
  "longitude": 123.8854366,
  "city": "Cebu City"
},
{
  "country": "Indonesia",
  "latitude": -8.670458199999999,
  "longitude": 115.2126293,
  "city": "Denpasar"
},
{
  "country": "Croatia",
  "latitude": 42.65066059999999,
  "longitude": 18.0944238,
  "city": "Dubrovnik"
},
{
  "country": "Vietnam",
  "latitude": 11.9404192,
  "longitude": 108.4583132,
  "city": "Dalat"
},
{
  "country": "Indonesia",
  "latitude": -8.7155163,
  "longitude": 115.4596824,
  "city": "Nusa Penida"
},
{
  "country": "Costa Rica",
  "latitude": 9.9280694,
  "longitude": -84.0907246,
  "city": "San José"
},
{
  "country": "Vietnam",
  "latitude": 22.8025588,
  "longitude": 104.9784494,
  "city": "Hà Giang"
},
{
  "country": "Thailand",
  "latitude": 6.4885717,
  "longitude": 99.30489589999999,
  "city": "Ko Lipe"
},
{
  "country": "Denmark",
  "latitude": 55.6760968,
  "longitude": 12.5683371,
  "city": "Copenhagen"
},
{
  "country": "Indonesia",
  "latitude": -8.8149106,
  "longitude": 115.088389,
  "city": "Uluwatu Beach"
},
{
  "country": "Germany",
  "latitude": 50.1109221,
  "longitude": 8.6821267,
  "city": "Frankfurt"
},
{
  "country": "Peru",
  "latitude": -12.0463731,
  "longitude": -77.042754,
  "city": "Lima"
},
{
  "country": "Bonaire, Sint Eustatius and Saba",
  "latitude": 37.5518911,
  "longitude": 126.9917937,
  "city": "Seoul"
},
{
  "country": "Philippines",
  "latitude": 11.1953602,
  "longitude": 119.4189097,
  "city": "El Nido"
},
{
  "country": "Laos",
  "latitude": 17.9757058,
  "longitude": 102.6331035,
  "city": "Vientiane"
},
{
  "country": "Mexico",
  "latitude": 20.2114185,
  "longitude": -87.46535019999999,
  "city": "Tulum"
},
{
  "country": "Netherlands",
  "latitude": 52.3105386,
  "longitude": 4.7682744,
  "city": "Amsterdam Airport Schiphol"
},
{
  "country": "United Arab Emirates",
  "latitude": 25.2048493,
  "longitude": 55.2707828,
  "city": "Dubai"
},
{
  "country": "Portugal",
  "latitude": 41.1579438,
  "longitude": -8.629105299999999,
  "city": "Porto"
},
{
  "country": "Mexico",
  "latitude": 19.4326077,
  "longitude": -99.133208,
  "city": "Mexico City"
},
{
  "country": "Laos",
  "latitude": 18.95009,
  "longitude": 102.44379,
  "city": "Vang Vieng"
},
{
  "country": "Switzerland",
  "latitude": 47.3768866,
  "longitude": 8.541694,
  "city": "Zürich"
},
{
  "country": "Colombia",
  "latitude": 11.2403547,
  "longitude": -74.2110227,
  "city": "Santa Marta"
},
{
  "country": "Peru",
  "latitude": -13.53195,
  "longitude": -71.96746259999999,
  "city": "Cusco"
},
{
  "country": "Japan",
  "latitude": 34.3852894,
  "longitude": 132.4553055,
  "city": "Hiroshima"
},
{
  "country": "Philippines",
  "latitude": 12.0489179,
  "longitude": 120.1519011,
  "city": "Coron"
},
{
  "country": "New Zealand",
  "latitude": -36.85088270000001,
  "longitude": 174.7644881,
  "city": "Auckland"
},
{
  "country": "Malaysia",
  "latitude": 5.414130699999999,
  "longitude": 100.3287506,
  "city": "George Town"
},
{
  "country": "Sri Lanka",
  "latitude": 6.9270786,
  "longitude": 79.861243,
  "city": "Colombo"
},
{
  "country": "Thailand",
  "latitude": 7.746115799999999,
  "longitude": 98.77841,
  "city": "Ko Phi Phi Don"
},
{
  "country": "Slovenia",
  "latitude": 46.0569465,
  "longitude": 14.5057515,
  "city": "Ljubljana"
},
{
  "country": "Malaysia",
  "latitude": 6.3661203,
  "longitude": 99.7798102,
  "city": "Langkawi"
},
{
  "country": "Thailand",
  "latitude": 8.011711,
  "longitude": 98.83777599999999,
  "city": "Railay Beach"
},
{
  "country": "Guatemala",
  "latitude": 14.5572969,
  "longitude": -90.73322329999999,
  "city": "Antigua Guatemala"
},
{
  "country": "Vietnam",
  "latitude": 12.2529152,
  "longitude": 109.1899018,
  "city": "Nha Trang"
},
{
  "country": "Mexico",
  "latitude": 20.68964,
  "longitude": -88.20224879999999,
  "city": "Valladolid"
},
{
  "country": "Australia",
  "latitude": -37.8136276,
  "longitude": 144.9630576,
  "city": "Melbourne"
},
{
  "country": "Argentina",
  "latitude": -34.6036844,
  "longitude": -58.3815591,
  "city": "Buenos Aires"
},
{
  "country": "Albania",
  "latitude": 41.3275459,
  "longitude": 19.8186982,
  "city": "Tirana"
},
{
  "country": "Colombia",
  "latitude": 4.637365,
  "longitude": -75.5703107,
  "city": "Salento"
},
{
  "country": "Mexico",
  "latitude": 18.6782919,
  "longitude": -88.3923946,
  "city": "Bacalar"
},
{
  "country": "Indonesia",
  "latitude": -7.7955798,
  "longitude": 110.3694896,
  "city": "Yogyakarta"
},
{
  "country": "Malaysia",
  "latitude": 4.467892099999999,
  "longitude": 101.3847868,
  "city": "Cameron Highlands"
},
{
  "country": "Italy",
  "latitude": 45.43838419999999,
  "longitude": 10.9916215,
  "city": "Verona"
},
{
  "country": "Indonesia",
  "latitude": -8.650979,
  "longitude": 116.3249438,
  "city": "Lombok"
},
{
  "country": "Sri Lanka",
  "latitude": 7.200796799999999,
  "longitude": 79.8736754,
  "city": "Negombo"
},
{
  "country": "Croatia",
  "latitude": 45.8150108,
  "longitude": 15.981919,
  "city": "Zagreb"
},
{
  "country": "Vietnam",
  "latitude": 10.9332105,
  "longitude": 108.2871837,
  "city": "Mũi Né"
},
{
  "country": "Indonesia",
  "latitude": -8.880273899999999,
  "longitude": 116.2836124,
  "city": "Kuta"
},
{
  "country": "Bonaire, Sint Eustatius and Saba",
  "latitude": 41.0082376,
  "longitude": 28.9783589,
  "city": "İstanbul"
},
{
  "country": "United Kingdom",
  "latitude": 55.953252,
  "longitude": -3.188267,
  "city": "Edinburgh"
},
{
  "country": "Italy",
  "latitude": 44.494887,
  "longitude": 11.3426163,
  "city": "Bologna"
},
{
  "country": "Guatemala",
  "latitude": 16.9181251,
  "longitude": -89.8926065,
  "city": "Flores"
},
{
  "country": "Italy",
  "latitude": 43.7228386,
  "longitude": 10.4016888,
  "city": "Pisa"
},
{
  "country": "Morocco",
  "latitude": 31.6315315,
  "longitude": -7.9896003,
  "city": "Marrakesh"
},
{
  "country": "Japan",
  "latitude": 38.73979,
  "longitude": 139.835713,
  "city": "1"
},
{
  "country": "Norway",
  "latitude": 59.9138688,
  "longitude": 10.7522454,
  "city": "Oslo"
},
{
  "country": "Indonesia",
  "latitude": -8.6785828,
  "longitude": 115.4555858,
  "city": "Jungutbatu"
},
{
  "country": "Spain",
  "latitude": 36.721261,
  "longitude": -4.4212655,
  "city": "Málaga"
},
{
  "country": "Australia",
  "latitude": -27.4704528,
  "longitude": 153.0260341,
  "city": "Brisbane"
},
{
  "country": "Australia",
  "latitude": -16.9203476,
  "longitude": 145.7709529,
  "city": "Cairns"
},
{
  "country": "Spain",
  "latitude": 37.1774605,
  "longitude": -3.5984368,
  "city": "Granada"
},
{
  "country": "Indonesia",
  "latitude": -8.691289399999999,
  "longitude": 115.1681653,
  "city": "Seminyak"
},
{
  "country": "Sri Lanka",
  "latitude": 6.8666988,
  "longitude": 81.046553,
  "city": "Ella"
},
{
  "country": "Thailand",
  "latitude": 18.8064779,
  "longitude": 98.94661459999999,
  "city": "Mueang Chiang Mai District"
},
{
  "country": "Spain",
  "latitude": 37.3890924,
  "longitude": -5.9844589,
  "city": "Seville"
},
{
  "country": "Thailand",
  "latitude": 7.7532419,
  "longitude": 99.0792263,
  "city": "Ko Lanta District"
},
{
  "country": "Cambodia",
  "latitude": 10.7290832,
  "longitude": 103.2317225,
  "city": "Koh Rong"
},
{
  "country": "Sri Lanka",
  "latitude": 7.2905715,
  "longitude": 80.6337262,
  "city": "Kandy"
},
{
  "country": "Colombia",
  "latitude": 11.142812,
  "longitude": -74.116677,
  "city": "Minca"
},
{
  "country": "Ecuador",
  "latitude": -0.1806532,
  "longitude": -78.4678382,
  "city": "Quito"
},
{
  "country": "Malaysia",
  "latitude": 2.189594,
  "longitude": 102.2500868,
  "city": "Malacca"
},
{
  "country": "Spain",
  "latitude": 39.4699075,
  "longitude": -0.3762881,
  "city": "Valencia"
},
{
  "country": "Italy",
  "latitude": 46.0160486,
  "longitude": 9.257167599999999,
  "city": "Lake Como"
},
{
  "country": "Mexico",
  "latitude": 20.9673702,
  "longitude": -89.5925857,
  "city": "Mérida"
},
{
  "country": "Panama",
  "latitude": 8.9823792,
  "longitude": -79.51986959999999,
  "city": "Panama City"
},
{
  "country": "France",
  "latitude": 43.296482,
  "longitude": 5.36978,
  "city": "Marseille"
},
{
  "country": "Thailand",
  "latitude": 15.870032,
  "longitude": 100.992541,
  "city": "Thailand"
},
{
  "country": "Italy",
  "latitude": 44.4056499,
  "longitude": 8.946256,
  "city": "Genoa"
},
{
  "country": "Iceland",
  "latitude": 64.146582,
  "longitude": -21.9426354,
  "city": "Reykjavík"
},
{
  "country": "Germany",
  "latitude": 53.5488282,
  "longitude": 9.987170299999999,
  "city": "Hamburg"
},
{
  "country": "Sweden",
  "latitude": 59.32932349999999,
  "longitude": 18.0685808,
  "city": "Stockholm"
},
{
  "country": "United States",
  "latitude": 25.7616798,
  "longitude": -80.1917902,
  "city": "Miami"
},
{
  "country": "Indonesia",
  "latitude": -8.3590452,
  "longitude": 116.0812832,
  "city": "Gili Air"
},
{
  "country": "Costa Rica",
  "latitude": 10.4678335,
  "longitude": -84.64268059999999,
  "city": "La Fortuna"
},
{
  "country": "Italy",
  "latitude": 40.6262925,
  "longitude": 14.3757985,
  "city": "Sorrento"
},
{
  "country": "Mexico",
  "latitude": 21.5308421,
  "longitude": -87.2866995,
  "city": "Isla Holbox"
},
{
  "country": "Chile",
  "latitude": -33.4488897,
  "longitude": -70.6692655,
  "city": "Santiago"
},
{
  "country": "Sri Lanka",
  "latitude": 7.954108499999998,
  "longitude": 80.75469799999999,
  "city": "Sigiriya"
},
{
  "country": "Italy",
  "latitude": 44.1460939,
  "longitude": 9.6438793,
  "city": "Cinque Terre"
},
{
  "country": "Vietnam",
  "latitude": 17.5813312,
  "longitude": 106.2834643,
  "city": "Phong Natural Heritage Area"
},
{
  "country": "Italy",
  "latitude": 41.1171432,
  "longitude": 16.8718715,
  "city": "Bari"
},
{
  "country": "Philippines",
  "latitude": 9.7638429,
  "longitude": 118.7473298,
  "city": "Puerto Princesa"
},
{
  "country": "Indonesia",
  "latitude": -8.161140999999999,
  "longitude": 115.0243566,
  "city": "Lovina Beach"
},
{
  "country": "Mexico",
  "latitude": 20.6295586,
  "longitude": -87.0738851,
  "city": "Playa del Carmen"
},
{
  "country": "Mexico",
  "latitude": 17.0731842,
  "longitude": -96.7265889,
  "city": "Oaxaca"
},
{
  "country": "Netherlands",
  "latitude": 52.3076865,
  "longitude": 4.767424099999999,
  "city": "Schiphol"
},
{
  "country": "Cambodia",
  "latitude": 10.5942421,
  "longitude": 104.1640355,
  "city": "Krong Kampot"
},
{
  "country": "Italy",
  "latitude": 43.31880899999999,
  "longitude": 11.3307574,
  "city": "Siena"
},
{
  "country": "Indonesia",
  "latitude": -8.694737,
  "longitude": 115.2630142,
  "city": "Sanur"
},
{
  "country": "Ireland",
  "latitude": 53.3498053,
  "longitude": -6.2603097,
  "city": "Dublin"
},
{
  "country": "Portugal",
  "latitude": 37.1027881,
  "longitude": -8.6730275,
  "city": "Lagos"
},
{
  "country": "Greece",
  "latitude": 36.4166485,
  "longitude": 25.432447,
  "city": "Fira"
},
{
  "country": "Philippines",
  "latitude": 9.849991099999999,
  "longitude": 124.1435427,
  "city": "Bohol"
},
{
  "country": "Philippines",
  "latitude": 9.8481883,
  "longitude": 126.0458437,
  "city": "Siargao Island"
},
{
  "country": "Costa Rica",
  "latitude": 10.2749682,
  "longitude": -84.8255097,
  "city": "Monteverde"
},
{
  "country": "Bolivia",
  "latitude": -16.489689,
  "longitude": -68.11929359999999,
  "city": "La Paz"
},
{
  "country": "Canada",
  "latitude": 49.2827291,
  "longitude": -123.1207375,
  "city": "Vancouver"
},
{
  "country": "Colombia",
  "latitude": 11.03336,
  "longitude": -73.65003,
  "city": "Palomino"
},
{
  "country": "Philippines",
  "latitude": 9.955660900000002,
  "longitude": 123.4007598,
  "city": "Moalboal"
},
{
  "country": "Italy",
  "latitude": 45.8080597,
  "longitude": 9.0851765,
  "city": "Como"
},
{
  "country": "South Africa",
  "latitude": -33.9248685,
  "longitude": 18.4240553,
  "city": "Cape Town"
},
{
  "country": "Jordan",
  "latitude": 31.9539494,
  "longitude": 35.910635,
  "city": "Amman"
},
{
  "country": "United States",
  "latitude": 38.9071923,
  "longitude": -77.0368707,
  "city": "Washington"
},
{
  "country": "Poland",
  "latitude": 50.06465009999999,
  "longitude": 19.9449799,
  "city": "Kraków"
},
{
  "country": "Japan",
  "latitude": 34.685109,
  "longitude": 135.8048019,
  "city": "Nara"
},
{
  "country": "New Zealand",
  "latitude": -43.5320214,
  "longitude": 172.6305589,
  "city": "Christchurch"
},
{
  "country": "Philippines",
  "latitude": 9.213263099999999,
  "longitude": 123.5157032,
  "city": "Siquijor"
},
{
  "country": "Italy",
  "latitude": 43.7228315,
  "longitude": 10.4017194,
  "city": "Province of Pisa"
},
{
  "country": "Slovakia",
  "latitude": 48.1485965,
  "longitude": 17.1077477,
  "city": "Bratislava"
},
{
  "country": "Greece",
  "latitude": 37.0856432,
  "longitude": 25.1488318,
  "city": "Paros"
},
{
  "country": "Vietnam",
  "latitude": 20.9100512,
  "longitude": 107.1839024,
  "city": "Hạ Long Bay"
},
{
  "country": "Vietnam",
  "latitude": 10.289879,
  "longitude": 103.98402,
  "city": "Phú Quốc"
},
{
  "country": "Peru",
  "latitude": -16.4090474,
  "longitude": -71.53745099999999,
  "city": "Arequipa"
},
{
  "country": "Mexico",
  "latitude": 16.7370359,
  "longitude": -92.6376186,
  "city": "San Cristobal de las Casas"
},
{
  "country": "Thailand",
  "latitude": 19.8737421,
  "longitude": 99.72326729999999,
  "city": "Chiang Rai"
},
{
  "country": "United States",
  "latitude": 36.0544445,
  "longitude": -112.1401108,
  "city": "Grand Canyon Village"
},
{
  "country": "Indonesia",
  "latitude": -8.746717199999999,
  "longitude": 115.166787,
  "city": "Ngurah Rai International Airport"
},
{
  "country": "Indonesia",
  "latitude": -8.727807,
  "longitude": 115.5444231,
  "city": "Penida Island"
},
{
  "country": "Costa Rica",
  "latitude": 9.6540146,
  "longitude": -82.75494119999999,
  "city": "Puerto Viejo de Talamanca"
},
{
  "country": "Thailand",
  "latitude": 12.9235557,
  "longitude": 100.8824551,
  "city": "Pattaya City"
},
{
  "country": "Cambodia",
  "latitude": 13.09573,
  "longitude": 103.2022055,
  "city": "Krong Battambang"
},
{
  "country": "Thailand",
  "latitude": 7.968355999999999,
  "longitude": 98.5830907,
  "city": "Ko Yao Yai"
},
{
  "country": "Indonesia",
  "latitude": -8.453848400000002,
  "longitude": 119.8728421,
  "city": "Labuan Bajo"
},
{
  "country": "Australia",
  "latitude": -20.2677525,
  "longitude": 148.7155626,
  "city": "Airlie Beach"
},
{
  "country": "Hong Kong",
  "latitude": 22.3193039,
  "longitude": 114.1693611,
  "city": "Hong Kong"
},
{
  "country": "Italy",
  "latitude": 38.11569,
  "longitude": 13.3614868,
  "city": "Palermo"
},
{
  "country": "Indonesia",
  "latitude": -8.4648305,
  "longitude": 115.4478043,
  "city": "Sidemen"
},
{
  "country": "Mexico",
  "latitude": 15.8719795,
  "longitude": -97.0767365,
  "city": "Puerto Escondido"
},
{
  "country": "France",
  "latitude": 45.764043,
  "longitude": 4.835659,
  "city": "Lyon"
},
{
  "country": "Netherlands",
  "latitude": 52.09073739999999,
  "longitude": 5.1214201,
  "city": "Utrecht"
},
{
  "country": "Laos",
  "latitude": 20.262817,
  "longitude": 100.4340367,
  "city": "Huay Xai"
},
{
  "country": "Croatia",
  "latitude": 44.119371,
  "longitude": 15.2313648,
  "city": "Zadar"
},
{
  "country": "Vietnam",
  "latitude": 20.8,
  "longitude": 106.999722,
  "city": "Cát Bà Island"
},
{
  "country": "United States",
  "latitude": 36.91472220000001,
  "longitude": -111.4558333,
  "city": "Page"
},
{
  "country": "New Zealand",
  "latitude": -41.0299323,
  "longitude": 175.4375574,
  "city": "Wellington"
},
{
  "country": "Croatia",
  "latitude": 43.1729478,
  "longitude": 16.4411136,
  "city": "Hvar"
},
{
  "country": "Colombia",
  "latitude": 11.3064409,
  "longitude": -74.0657561,
  "city": "Parque Nacional Natural Tayrona"
},
{
  "country": "Portugal",
  "latitude": 37.0193548,
  "longitude": -7.9304397,
  "city": "Faro"
},
{
  "country": "Thailand",
  "latitude": 10.5780131,
  "longitude": 99.1013498,
  "city": "Chumphon"
},
{
  "country": "Japan",
  "latitude": 35.2323825,
  "longitude": 139.1069355,
  "city": "Hakone"
},
{
  "country": "Australia",
  "latitude": -28.6419122,
  "longitude": 153.6105168,
  "city": "Byron Bay"
},
{
  "country": "United States",
  "latitude": 28.5383832,
  "longitude": -81.3789269,
  "city": "Orlando"
},
{
  "country": "Switzerland",
  "latitude": 46.2043907,
  "longitude": 6.1431577,
  "city": "Geneva"
},
{
  "country": "Indonesia",
  "latitude": -8.4925531,
  "longitude": 119.8773157,
  "city": "Komodo"
},
{
  "country": "Norway",
  "latitude": 60.39126279999999,
  "longitude": 5.3220544,
  "city": "Bergen"
},
{
  "country": "Mexico",
  "latitude": 17.5229209,
  "longitude": -91.9872616,
  "city": "Palenque"
},
{
  "country": "Thailand",
  "latitude": 8.7039641,
  "longitude": 98.2582605,
  "city": "Khao Lak"
},
{
  "country": "Monaco",
  "latitude": 43.73841760000001,
  "longitude": 7.424615799999999,
  "city": "Monaco"
},
{
  "country": "Canada",
  "latitude": 43.653226,
  "longitude": -79.3831843,
  "city": "Toronto"
},
{
  "country": "Malaysia",
  "latitude": 5.909231023027367,
  "longitude": 102.7479949297043,
  "city": "Perhentian Islands"
},
{
  "country": "Thailand",
  "latitude": 13.6899991,
  "longitude": 100.7501124,
  "city": "Suvarnabhumi Airport"
},
{
  "country": "Italy",
  "latitude": 43.8429197,
  "longitude": 10.5026977,
  "city": "Lucca"
},
{
  "country": "Sri Lanka",
  "latitude": 5.948262,
  "longitude": 80.4715866,
  "city": "Mirissa"
},
{
  "country": "Sri Lanka",
  "latitude": 6.949716599999999,
  "longitude": 80.7891068,
  "city": "Nuwara Eliya"
},
{
  "country": "Finland",
  "latitude": 60.16985569999999,
  "longitude": 24.938379,
  "city": "Helsinki"
},
{
  "country": "United States",
  "latitude": 37.8651011,
  "longitude": -119.5383294,
  "city": "Yosemite National Park"
},
{
  "country": "Malaysia",
  "latitude": 5.263234100000001,
  "longitude": 100.4846227,
  "city": "Penang"
},
{
  "country": "Indonesia",
  "latitude": -8.351844020639557,
  "longitude": 116.0561632075775,
  "city": "Gili Islands"
},
{
  "country": "United States",
  "latitude": 32.715738,
  "longitude": -117.1610838,
  "city": "San Diego"
},
{
  "country": "Netherlands",
  "latitude": 51.9244201,
  "longitude": 4.4777325,
  "city": "Rotterdam"
},
{
  "country": "Indonesia",
  "latitude": -7.9666204,
  "longitude": 112.6326321,
  "city": "Malang"
},
{
  "country": "Italy",
  "latitude": 40.6280528,
  "longitude": 14.4849812,
  "city": "Positano"
},
{
  "country": "Poland",
  "latitude": 52.2296756,
  "longitude": 21.0122287,
  "city": "Warsaw"
},
{
  "country": "Guatemala",
  "latitude": 14.6906713,
  "longitude": -91.20252070000001,
  "city": "Lake Atitlán"
},
{
  "country": "Cambodia",
  "latitude": 10.5886219,
  "longitude": 103.2952096,
  "city": "Koh Rong Sanloem"
},
{
  "country": "Philippines",
  "latitude": 11.9673753,
  "longitude": 121.924815,
  "city": "Boracay"
},
{
  "country": "Vietnam",
  "latitude": 14.058324,
  "longitude": 108.277199,
  "city": "Vietnam"
},
{
  "country": "Japan",
  "latitude": 36.5610309,
  "longitude": 136.6566475,
  "city": "Kanazawa"
},
{
  "country": "Austria",
  "latitude": 47.80949,
  "longitude": 13.05501,
  "city": "Salzburg"
},
{
  "country": "Thailand",
  "latitude": 12.5683747,
  "longitude": 99.9576888,
  "city": "Hua Hin"
},
{
  "country": "Malaysia",
  "latitude": 5.980408,
  "longitude": 116.0734568,
  "city": "Kota Kinabalu"
},
{
  "country": "Sri Lanka",
  "latitude": 8.311351799999999,
  "longitude": 80.4036508,
  "city": "Anuradhapura"
},
{
  "country": "Spain",
  "latitude": 37.8881751,
  "longitude": -4.7793835,
  "city": "Córdoba"
},
{
  "country": "Greece",
  "latitude": 37.4467354,
  "longitude": 25.3288845,
  "city": "Mykonos"
},
{
  "country": "Colombia",
  "latitude": 6.2337643,
  "longitude": -75.1592213,
  "city": "Guatapé"
},
{
  "country": "United States",
  "latitude": 41.8781136,
  "longitude": -87.6297982,
  "city": "Chicago"
},
{
  "country": "Spain",
  "latitude": 36.5902157,
  "longitude": -4.5730219,
  "city": "2"
},
{
  "country": "Japan",
  "latitude": 36.1461317,
  "longitude": 137.252159,
  "city": "Takayama"
},
{
  "country": "Thailand",
  "latitude": 7.8649213,
  "longitude": 98.3636131,
  "city": "Mueang Phuket District"
},
{
  "country": "Malaysia",
  "latitude": 4.6005126,
  "longitude": 101.0757837,
  "city": "Ipoh"
},
{
  "country": "Indonesia",
  "latitude": -6.9174639,
  "longitude": 107.6191228,
  "city": "Bandung"
},
{
  "country": "Australia",
  "latitude": -28.016667,
  "longitude": 153.4,
  "city": "Gold Coast"
},
{
  "country": "New Zealand",
  "latitude": -45.0301511,
  "longitude": 168.6615141,
  "city": "Queenstown"
},
{
  "country": "Argentina",
  "latitude": -50.337969,
  "longitude": -72.2647981,
  "city": "El Calafate"
},
{
  "country": "Laos",
  "latitude": 20.5710354,
  "longitude": 102.6115749,
  "city": "Nong Khiaw"
},
{
  "country": "Italy",
  "latitude": 40.6333389,
  "longitude": 14.6028963,
  "city": "Province of Salerno"
},
{
  "country": "Switzerland",
  "latitude": 46.6863481,
  "longitude": 7.863204899999999,
  "city": "Interlaken"
},
{
  "country": "Germany",
  "latitude": 51.2277411,
  "longitude": 6.7734556,
  "city": "Düsseldorf"
},
{
  "country": "United Kingdom",
  "latitude": 53.4807593,
  "longitude": -2.2426305,
  "city": "Manchester"
},
{
  "country": "Belize",
  "latitude": 17.7611578,
  "longitude": -88.02774869999999,
  "city": "Caye Caulker"
},
{
  "country": "Indonesia",
  "latitude": -7.9424936,
  "longitude": 112.9530122,
  "city": "Mount Bromo"
},
{
  "country": "Egypt",
  "latitude": 30.0444196,
  "longitude": 31.2357116,
  "city": "Cairo"
},
{
  "country": "Brazil",
  "latitude": -22.3534263,
  "longitude": -42.7076107,
  "city": "State of Rio de Janeiro"
},
{
  "country": "Australia",
  "latitude": -31.9523123,
  "longitude": 115.861309,
  "city": "Perth"
},
{
  "country": "Bonaire, Sint Eustatius and Saba",
  "latitude": 35.2100142,
  "longitude": 129.0688702,
  "city": "Busan"
},
{
  "country": "Switzerland",
  "latitude": 47.05016819999999,
  "longitude": 8.3093072,
  "city": "Lucerne"
},
{
  "country": "Serbia",
  "latitude": 44.8125449,
  "longitude": 20.46123,
  "city": "Belgrade"
},
{
  "country": "Morocco",
  "latitude": 34.0181246,
  "longitude": -5.0078451,
  "city": "Fes"
},
{
  "country": "South Africa",
  "latitude": -26.2041028,
  "longitude": 28.0473051,
  "city": "Johannesburg"
},
{
  "country": "Philippines",
  "latitude": 10.442174,
  "longitude": 119.1158017,
  "city": "Port Barton"
},
{
  "country": "Croatia",
  "latitude": 45.1,
  "longitude": 15.2,
  "city": "Croatia"
},
{
  "country": "Italy",
  "latitude": 44.1024504,
  "longitude": 9.824082599999999,
  "city": "La Spezia"
},
{
  "country": "Slovenia",
  "latitude": 46.3683266,
  "longitude": 14.1145798,
  "city": "Bled"
},
{
  "country": "Peru",
  "latitude": -14.0874587,
  "longitude": -75.762586,
  "city": "Huacachina"
},
{
  "country": "United States",
  "latitude": 36.5322649,
  "longitude": -116.9325408,
  "city": "Death Valley"
},
{
  "country": "Indonesia",
  "latitude": -8.8282635,
  "longitude": 115.0879098,
  "city": "Uluwatu"
},
{
  "country": "Brazil",
  "latitude": -23.5557714,
  "longitude": -46.6395571,
  "city": "São Paulo"
},
{
  "country": "Sri Lanka",
  "latitude": 6.032894799999999,
  "longitude": 80.2167912,
  "city": "Galle"
},
{
  "country": "Italy",
  "latitude": 37.5078772,
  "longitude": 15.0830304,
  "city": "Catania"
},
{
  "country": "France",
  "latitude": 44.837789,
  "longitude": -0.57918,
  "city": "Bordeaux"
},
{
  "country": "Italy",
  "latitude": 40.7461572,
  "longitude": 14.4989344,
  "city": "Pompei"
},
{
  "country": "Italy",
  "latitude": 40.6340026,
  "longitude": 14.6026805,
  "city": "Amalfi"
},
{
  "country": "Thailand",
  "latitude": 11.6680759,
  "longitude": 102.5642261,
  "city": "Koh Kood"
},
{
  "country": "Greece",
  "latitude": 39.6242621,
  "longitude": 19.9216777,
  "city": "Corfu"
},
{
  "country": "British Indian Ocean Territory",
  "latitude": 19.0759837,
  "longitude": 72.8776559,
  "city": "Mumbai"
},
{
  "country": "Malaysia",
  "latitude": 3.139003,
  "longitude": 101.686855,
  "city": "Kuala Lumpur"
},
{
  "country": "Indonesia",
  "latitude": -8.2666267,
  "longitude": 115.054678,
  "city": "Munduk"
},
{
  "country": "Thailand",
  "latitude": 8.0292052,
  "longitude": 98.82403529999999,
  "city": "Ao Nang Beach"
},
{
  "country": "Sri Lanka",
  "latitude": 8.5873638,
  "longitude": 81.2152121,
  "city": "Trincomalee"
},
{
  "country": "Nicaragua",
  "latitude": 12.4342803,
  "longitude": -86.88052189999999,
  "city": "León"
},
{
  "country": "Japan",
  "latitude": 33.5901838,
  "longitude": 130.4016888,
  "city": "Fukuoka"
},
{
  "country": "Qatar",
  "latitude": 25.2854473,
  "longitude": 51.53103979999999,
  "city": "Doha"
},
{
  "country": "United States",
  "latitude": 37.2982022,
  "longitude": -113.0263005,
  "city": "Zion National Park"
},
{
  "country": "Brazil",
  "latitude": -22.9068467,
  "longitude": -43.1728965,
  "city": "Rio de Janeiro"
},
{
  "country": "Montenegro",
  "latitude": 42.424662,
  "longitude": 18.771234,
  "city": "Kotor"
},
{
  "country": "Peru",
  "latitude": -13.2263308,
  "longitude": -72.4973215,
  "city": "Peru"
},
{
  "country": "Belgium",
  "latitude": 51.2213404,
  "longitude": 4.4051485,
  "city": "Antwerp"
},
{
  "country": "United States",
  "latitude": 47.6062095,
  "longitude": -122.3320708,
  "city": "Seattle"
},
{
  "country": "Germany",
  "latitude": 50.937531,
  "longitude": 6.9602786,
  "city": "Cologne"
},
{
  "country": "Sweden",
  "latitude": 57.70887,
  "longitude": 11.97456,
  "city": "Gothenburg"
},
{
  "country": "Thailand",
  "latitude": 12.0479159,
  "longitude": 102.3234816,
  "city": "Koh Chang"
},
{
  "country": "Nepal",
  "latitude": 27.7172453,
  "longitude": 85.3239605,
  "city": "Kathmandu"
},
{
  "country": "Mexico",
  "latitude": 21.2366946,
  "longitude": -86.7357679,
  "city": "Isla Mujeres"
},
{
  "country": "British Indian Ocean Territory",
  "latitude": 28.6139391,
  "longitude": 77.2090212,
  "city": "New Delhi"
},
{
  "country": "Malaysia",
  "latitude": 4.3831255,
  "longitude": 102.4032854,
  "city": "Taman Negara"
},
{
  "country": "Vietnam",
  "latitude": 20.9472608,
  "longitude": 107.0627633,
  "city": "W3W7+W42"
},
{
  "country": "Albania",
  "latitude": 39.7636732,
  "longitude": 19.9943469,
  "city": "Ksamil"
},
{
  "country": "Colombia",
  "latitude": 5.598813199999999,
  "longitude": -75.8198172,
  "city": "Jardín"
},
{
  "country": "Costa Rica",
  "latitude": 9.4092624,
  "longitude": -84.1553848,
  "city": "Manuel Antonio"
},
{
  "country": "Greece",
  "latitude": 37.1021029,
  "longitude": 25.376114,
  "city": "Naxos"
},
{
  "country": "Taiwan",
  "latitude": 25.0329636,
  "longitude": 121.5654268,
  "city": "Taipei City"
},
{
  "country": "Italy",
  "latitude": 40.55068989999999,
  "longitude": 14.2428003,
  "city": "Capri"
},
{
  "country": "Laos",
  "latitude": 19.85627,
  "longitude": 102.495496,
  "city": "Laos"
},
{
  "country": "Canada",
  "latitude": 45.5018869,
  "longitude": -73.56739189999999,
  "city": "Montreal"
},
{
  "country": "Nicaragua",
  "latitude": 11.263406,
  "longitude": -85.8639766,
  "city": "San Juan del Sur"
},
{
  "country": "Cambodia",
  "latitude": 10.6267867,
  "longitude": 103.5115545,
  "city": "Preah Sihanouk"
},
{
  "country": "Spain",
  "latitude": 43.318334,
  "longitude": -1.9812313,
  "city": "Donostia-San Sebastian"
},
{
  "country": "United States",
  "latitude": 36.9913715,
  "longitude": -110.1938672,
  "city": "Oljato-Monument Valley"
},
{
  "country": "Spain",
  "latitude": 39.0200099,
  "longitude": 1.4821482,
  "city": "Ibiza"
},
{
  "country": "Italy",
  "latitude": 45.6049385,
  "longitude": 10.6351414,
  "city": "Lake Garda"
},
{
  "country": "Thailand",
  "latitude": 17.0076429,
  "longitude": 99.8264435,
  "city": "Thani"
},
{
  "country": "Peru",
  "latitude": -15.8402218,
  "longitude": -70.0218805,
  "city": "Puno"
},
{
  "country": "Thailand",
  "latitude": 7.8965763,
  "longitude": 98.30210439999999,
  "city": "Pa Tong"
},
{
  "country": "Luxembourg",
  "latitude": 49.815273,
  "longitude": 6.129582999999999,
  "city": "Luxembourg"
},
{
  "country": "Laos",
  "latitude": 15.1171823,
  "longitude": 105.8159045,
  "city": "Pakse"
},
{
  "country": "Vietnam",
  "latitude": 21.0285307,
  "longitude": 105.8483798,
  "city": "5"
},
{
  "country": "Greece",
  "latitude": 37.8289295,
  "longitude": 24.0315899,
  "city": "Milos"
},
{
  "country": "United Kingdom",
  "latitude": 55.864237,
  "longitude": -4.251806,
  "city": "Glasgow"
},
{
  "country": "Laos",
  "latitude": 19.89898,
  "longitude": 101.1419185,
  "city": "Pak Beng"
},
{
  "country": "Panama",
  "latitude": 9.3407804,
  "longitude": -82.2408032,
  "city": "Bocas del Toro"
},
{
  "country": "Indonesia",
  "latitude": 3.5951956,
  "longitude": 98.6722227,
  "city": "Medan"
},
{
  "country": "Albania",
  "latitude": 39.8592119,
  "longitude": 20.0271001,
  "city": "Sarandë"
},
{
  "country": "Malaysia",
  "latitude": 6.378194,
  "longitude": 99.79017809999999,
  "city": "Langkawi Island"
},
{
  "country": "United States",
  "latitude": 42.3600825,
  "longitude": -71.0588801,
  "city": "Boston"
},
{
  "country": "Italy",
  "latitude": 42.7434011,
  "longitude": 10.3792078,
  "city": "3"
},
{
  "country": "Italy",
  "latitude": 45.070312,
  "longitude": 7.686856499999999,
  "city": "Turin"
},
{
  "country": "Canada",
  "latitude": 51.1235364,
  "longitude": -114.2448432,
  "city": "Tuscany"
},
{
  "country": "Croatia",
  "latitude": 44.8666232,
  "longitude": 13.8495788,
  "city": "Pula"
},
{
  "country": "Romania",
  "latitude": 44.4267674,
  "longitude": 26.1025384,
  "city": "Bucharest"
},
{
  "country": "Austria",
  "latitude": 47.2692124,
  "longitude": 11.4041024,
  "city": "Innsbruck"
},
{
  "country": "Germany",
  "latitude": 48.7758459,
  "longitude": 9.1829321,
  "city": "Stuttgart"
},
{
  "country": "Ecuador",
  "latitude": -2.1894128,
  "longitude": -79.8890662,
  "city": "Guayaquil"
},
{
  "country": "Nicaragua",
  "latitude": 11.5141431,
  "longitude": -85.58179109999999,
  "city": "Ometepe"
},
{
  "country": "Vietnam",
  "latitude": 20.7145633,
  "longitude": 107.0657549,
  "city": "Cat Ba"
},
{
  "country": "Australia",
  "latitude": -25.2398229,
  "longitude": 153.1325243,
  "city": "Fraser Island"
},
{
  "country": "Thailand",
  "latitude": 14.4391554,
  "longitude": 101.3722299,
  "city": "Khao Yai National Park"
},
{
  "country": "Vietnam",
  "latitude": 10.063363,
  "longitude": 105.5943388,
  "city": "Mekong River Delta"
},
{
  "country": "United States",
  "latitude": 37.5930377,
  "longitude": -112.1870895,
  "city": "Bryce Canyon National Park"
},
{
  "country": "Indonesia",
  "latitude": -7.2574719,
  "longitude": 112.7520883,
  "city": "Surabaya"
},
{
  "country": "Thailand",
  "latitude": 17.243411,
  "longitude": 99.72326729999999,
  "city": "Sukhothai"
},
{
  "country": "Guatemala",
  "latitude": 15.5752827,
  "longitude": -89.9801782,
  "city": "San Agustín Lanquín"
},
{
  "country": "Mexico",
  "latitude": 19.8301251,
  "longitude": -90.5349087,
  "city": "Campeche"
},
{
  "country": "Indonesia",
  "latitude": -8.6609933,
  "longitude": 115.1321265,
  "city": "Canggu Beach"
},
{
  "country": "United States",
  "latitude": 29.95106579999999,
  "longitude": -90.0715323,
  "city": "New Orleans"
},
{
  "country": "Italy",
  "latitude": 41.87194,
  "longitude": 12.56738,
  "city": "Italy"
},
{
  "country": "Panama",
  "latitude": 8.777231800000001,
  "longitude": -82.4481944,
  "city": "Boquete"
},
{
  "country": "United States",
  "latitude": 36.6002378,
  "longitude": -121.8946761,
  "city": "Monterey"
},
{
  "country": "Indonesia",
  "latitude": -8.3354249,
  "longitude": 115.6576354,
  "city": "Amed Beach"
},
{
  "country": "Chile",
  "latitude": -51.7269318,
  "longitude": -72.5068209,
  "city": "Puerto Natales"
},
{
  "country": "United Arab Emirates",
  "latitude": 24.453884,
  "longitude": 54.3773438,
  "city": "Abu Dhabi"
},
{
  "country": "Malaysia",
  "latitude": 1.5533785,
  "longitude": 110.359503,
  "city": "Kuching"
},
{
  "country": "Belgium",
  "latitude": 50.900999,
  "longitude": 4.4855744,
  "city": "Brussels Airport"
},
{
  "country": "Cambodia",
  "latitude": 12.565679,
  "longitude": 104.990963,
  "city": "Cambodia"
},
{
  "country": "France",
  "latitude": 48.5734053,
  "longitude": 7.752111299999999,
  "city": "Strasbourg"
},
{
  "country": "Philippines",
  "latitude": 12.879721,
  "longitude": 121.774017,
  "city": "Philippines"
},
{
  "country": "Panama",
  "latitude": 9.570319192195281,
  "longitude": -78.78720149599607,
  "city": "San Blas Islands"
},
{
  "country": "Spain",
  "latitude": 39.5696005,
  "longitude": 2.6501603,
  "city": "Palma"
},
{
  "country": "Costa Rica",
  "latitude": 9.6463176,
  "longitude": -85.1673785,
  "city": "Santa Teresa Beach"
},
{
  "country": "Estonia",
  "latitude": 59.43696079999999,
  "longitude": 24.7535746,
  "city": "Tallinn"
},
{
  "country": "Italy",
  "latitude": 40.666379,
  "longitude": 16.6043199,
  "city": "Matera"
},
{
  "country": "Italy",
  "latitude": 44.3031559,
  "longitude": 9.2097879,
  "city": "Portofino"
},
{
  "country": "Australia",
  "latitude": -25.9045007,
  "longitude": 153.0897222,
  "city": "Rainbow Beach"
},
{
  "country": "Albania",
  "latitude": 42.0692985,
  "longitude": 19.5032559,
  "city": "Shkodër"
},
{
  "country": "Ecuador",
  "latitude": -1.3928344,
  "longitude": -78.42687579999999,
  "city": "Banos"
},
{
  "country": "Spain",
  "latitude": 43.2630126,
  "longitude": -2.9349852,
  "city": "Bilbao"
},
{
  "country": "Montenegro",
  "latitude": 42.4304196,
  "longitude": 19.2593642,
  "city": "Podgorica"
},
{
  "country": "France",
  "latitude": 43.552847,
  "longitude": 7.017369,
  "city": "Cannes"
},
{
  "country": "British Indian Ocean Territory",
  "latitude": 27.1766701,
  "longitude": 78.00807449999999,
  "city": "Agra"
},
{
  "country": "British Indian Ocean Territory",
  "latitude": 26.9124336,
  "longitude": 75.7872709,
  "city": "Jaipur"
},
{
  "country": "Costa Rica",
  "latitude": 10.5424838,
  "longitude": -83.50235520000001,
  "city": "Tortuguero"
},
{
  "country": "British Indian Ocean Territory",
  "latitude": 28.7040592,
  "longitude": 77.10249019999999,
  "city": "Delhi"
},
{
  "country": "Chile",
  "latitude": -33.3182828,
  "longitude": -71.4070899,
  "city": "Casablanca"
},
{
  "country": "Argentina",
  "latitude": -32.8894587,
  "longitude": -68.8458386,
  "city": "Mendoza"
},
{
  "country": "Bosnia and Herzegovina",
  "latitude": 43.34377480000001,
  "longitude": 17.8077578,
  "city": "Mostar"
},
{
  "country": "Malaysia",
  "latitude": 4.210484,
  "longitude": 101.975766,
  "city": "Malaysia"
},
{
  "country": "Japan",
  "latitude": 34.2192964,
  "longitude": 135.586543,
  "city": "Koyasan"
},
{
  "country": "United States",
  "latitude": 34.4208305,
  "longitude": -119.6981901,
  "city": "Santa Barbara"
},
{
  "country": "Belgium",
  "latitude": 51.2091807,
  "longitude": 3.2247552,
  "city": "Bruges"
},
{
  "country": "United States",
  "latitude": 39.7392358,
  "longitude": -104.990251,
  "city": "Denver"
},
{
  "country": "Colombia",
  "latitude": 3.4516467,
  "longitude": -76.5319854,
  "city": "Cali"
},
{
  "country": "Nicaragua",
  "latitude": 12.1149926,
  "longitude": -86.2361744,
  "city": "Managua"
},
{
  "country": "Peru",
  "latitude": -13.1547062,
  "longitude": -72.5254412,
  "city": "Aguas Calientes"
},
{
  "country": "Albania",
  "latitude": 40.7086377,
  "longitude": 19.9437314,
  "city": "Berat"
},
{
  "country": "Japan",
  "latitude": 35.18145060000001,
  "longitude": 136.9065571,
  "city": "Nagoya"
},
{
  "country": "Bulgaria",
  "latitude": 42.6977082,
  "longitude": 23.3218675,
  "city": "Sofia"
},
{
  "country": "Malaysia",
  "latitude": 5.839443999999999,
  "longitude": 118.1171729,
  "city": "Sandakan"
},
{
  "country": "Thailand",
  "latitude": 18.7370307,
  "longitude": 97.87216,
  "city": "Mae Hong Son"
},
{
  "country": "Israel",
  "latitude": 32.0852999,
  "longitude": 34.78176759999999,
  "city": "Tel Aviv-Yafo"
},
{
  "country": "United States",
  "latitude": 29.7604267,
  "longitude": -95.3698028,
  "city": "Houston"
},
{
  "country": "Greece",
  "latitude": 39.074208,
  "longitude": 21.824312,
  "city": "Greece"
},
{
  "country": "Bosnia and Herzegovina",
  "latitude": 43.8562586,
  "longitude": 18.4130763,
  "city": "Sarajevo"
},
{
  "country": "Belize",
  "latitude": 17.5045661,
  "longitude": -88.1962133,
  "city": "Belize City"
},
{
  "country": "New Zealand",
  "latitude": -38.1445987,
  "longitude": 176.2377669,
  "city": "Rotorua"
},
{
  "country": "Cuba",
  "latitude": 23.1135925,
  "longitude": -82.3665956,
  "city": "Havana"
},
{
  "country": "United Kingdom",
  "latitude": 57.477773,
  "longitude": -4.224721,
  "city": "Inverness"
},
{
  "country": "Colombia",
  "latitude": 6.554824,
  "longitude": -73.13412,
  "city": "San Gil"
},
{
  "country": "Australia",
  "latitude": -19.2589635,
  "longitude": 146.8169483,
  "city": "Townsville City"
},
{
  "country": "Latvia",
  "latitude": 56.9676941,
  "longitude": 24.1056221,
  "city": "Riga"
},
{
  "country": "Angola",
  "latitude": 38.6586639,
  "longitude": 34.8531604,
  "city": "Cappadocia"
},
{
  "country": "Jordan",
  "latitude": 29.5320522,
  "longitude": 35.0063209,
  "city": "Aqaba"
},
{
  "country": "Switzerland",
  "latitude": 46.9479739,
  "longitude": 7.4474468,
  "city": "Bern"
},
{
  "country": "Japan",
  "latitude": 36.2380434,
  "longitude": 137.9719897,
  "city": "Matsumoto"
},
{
  "country": "Sweden",
  "latitude": 55.604981,
  "longitude": 13.003822,
  "city": "Malmö"
},
{
  "country": "Ecuador",
  "latitude": -2.9001285,
  "longitude": -79.00589649999999,
  "city": "Cuenca"
},
{
  "country": "Montenegro",
  "latitude": 42.2911489,
  "longitude": 18.840295,
  "city": "Budva"
},
{
  "country": "Argentina",
  "latitude": -41.1334722,
  "longitude": -71.3102778,
  "city": "San Carlos de Bariloche"
},
{
  "country": "Spain",
  "latitude": 39.6952629,
  "longitude": 3.0175712,
  "city": "Majorca"
},
{
  "country": "Belgium",
  "latitude": 51.0500182,
  "longitude": 3.7303351,
  "city": "Ghent"
},
{
  "country": "Peru",
  "latitude": -13.8409149,
  "longitude": -76.2508304,
  "city": "Paracas"
},
{
  "country": "Mexico",
  "latitude": 20.6791438,
  "longitude": -88.5683091,
  "city": "Chichén-Itzá"
},
{
  "country": "Costa Rica",
  "latitude": 9.748916999999999,
  "longitude": -83.753428,
  "city": "Costa Rica"
},
{
  "country": "Guatemala",
  "latitude": 14.6349149,
  "longitude": -90.5068824,
  "city": "Guatemala City"
},
{
  "country": "Brazil",
  "latitude": -23.1520839,
  "longitude": -44.2289441,
  "city": "Ilha Grande"
},
{
  "country": "Argentina",
  "latitude": -24.7821269,
  "longitude": -65.4231976,
  "city": "Salta"
},
{
  "country": "United States",
  "latitude": 36.1626638,
  "longitude": -86.7816016,
  "city": "Nashville"
},
{
  "country": "United States",
  "latitude": 33.748752,
  "longitude": -84.38768449999999,
  "city": "Atlanta"
},
{
  "country": "Croatia",
  "latitude": 44.8653966,
  "longitude": 15.5820119,
  "city": "Plitvice Lakes National Park"
},
{
  "country": "Jordan",
  "latitude": 29.5742989,
  "longitude": 35.4210371,
  "city": "Wadi Rum Village"
},
{
  "country": "Argentina",
  "latitude": -49.3314941,
  "longitude": -72.886325,
  "city": "El Chaltén"
},
{
  "country": "Portugal",
  "latitude": 32.6506129,
  "longitude": -16.9082357,
  "city": "Funchal"
},
{
  "country": "Switzerland",
  "latitude": 46.7198346,
  "longitude": 8.2043771,
  "city": "15"
},
{
  "country": "Bolivia",
  "latitude": -20.4603534,
  "longitude": -66.82606489999999,
  "city": "Uyuni"
},
{
  "country": "Singapore",
  "latitude": 1.2540421,
  "longitude": 103.8238084,
  "city": "8"
},
{
  "country": "Guatemala",
  "latitude": 14.6114708,
  "longitude": -90.563609,
  "city": "Guatemala City Metropolitan Area"
},
{
  "country": "New Zealand",
  "latitude": -40.900557,
  "longitude": 174.885971,
  "city": "New Zealand"
},
{
  "country": "Philippines",
  "latitude": 14.6090537,
  "longitude": 121.0222565,
  "city": "Metro Manila"
},
{
  "country": "Italy",
  "latitude": 40.68244079999999,
  "longitude": 14.7680961,
  "city": "Salerno"
},
{
  "country": "Italy",
  "latitude": 45.6495264,
  "longitude": 13.7768182,
  "city": "Trieste"
},
{
  "country": "Bolivia",
  "latitude": -19.035345,
  "longitude": -65.2592128,
  "city": "Sucre"
},
{
  "country": "Costa Rica",
  "latitude": 9.163500899999999,
  "longitude": -83.7358514,
  "city": "Uvita"
},
{
  "country": "Guatemala",
  "latitude": 15.72643753226381,
  "longitude": -88.8836664781202,
  "city": "Rio Dulce"
},
{
  "country": "Australia",
  "latitude": -26.3960671,
  "longitude": 153.0894466,
  "city": "Noosa Heads"
},
{
  "country": "Oman",
  "latitude": 23.5880307,
  "longitude": 58.3828717,
  "city": "Muscat"
},
{
  "country": "Sri Lanka",
  "latitude": 7.874217000000001,
  "longitude": 80.6511287,
  "city": "Dambulla"
},
{
  "country": "Philippines",
  "latitude": 9.8349493,
  "longitude": 118.7383615,
  "city": "Palawan"
},
{
  "country": "Mexico",
  "latitude": 19.0414398,
  "longitude": -98.2062727,
  "city": "Puebla"
},
{
  "country": "Jordan",
  "latitude": 30.585164,
  "longitude": 36.238414,
  "city": "Jordan"
},
{
  "country": "Netherlands",
  "latitude": 52.132633,
  "longitude": 5.291265999999999,
  "city": "Netherlands"
},
{
  "country": "Panama",
  "latitude": 8.537981,
  "longitude": -80.782127,
  "city": "Panama"
},
{
  "country": "United States",
  "latitude": 37.7288001,
  "longitude": -119.6095,
  "city": "Yosemite Valley"
},
{
  "country": "Sri Lanka",
  "latitude": 7.873053999999999,
  "longitude": 80.77179699999999,
  "city": "Sri Lanka"
},
{
  "country": "Sri Lanka",
  "latitude": 6.017446899999999,
  "longitude": 80.2488596,
  "city": "Unawatuna"
},
{
  "country": "United States",
  "latitude": 32.7766642,
  "longitude": -96.79698789999999,
  "city": "Dallas"
},
{
  "country": "Italy",
  "latitude": 42.66323269999999,
  "longitude": 11.5042774,
  "city": "Saturnia"
},
{
  "country": "Bolivia",
  "latitude": -16.1662935,
  "longitude": -69.0861568,
  "city": "Copacabana"
},
{
  "country": "British Indian Ocean Territory",
  "latitude": 15.2993265,
  "longitude": 74.12399599999999,
  "city": "Goa"
},
{
  "country": "United Kingdom",
  "latitude": 52.5868159,
  "longitude": -2.1256587,
  "city": "Wolverhampton"
},
{
  "country": "United States",
  "latitude": 38.5733155,
  "longitude": -109.5498395,
  "city": "Moab"
},
{
  "country": "Indonesia",
  "latitude": -8.0583811,
  "longitude": 114.243299,
  "city": "Ijen"
},
{
  "country": "Italy",
  "latitude": 46.4102117,
  "longitude": 11.8440351,
  "city": "Dolomites"
},
{
  "country": "Chile",
  "latitude": -22.9087073,
  "longitude": -68.19971559999999,
  "city": "San Pedro de Atacama"
},
{
  "country": "Belize",
  "latitude": 17.1522786,
  "longitude": -89.0800227,
  "city": "San Ignacio"
},
{
  "country": "Morocco",
  "latitude": 31.5084926,
  "longitude": -9.7595041,
  "city": "Essaouira"
},
{
  "country": "Peru",
  "latitude": -9.5261154,
  "longitude": -77.5287792,
  "city": "Huaraz"
},
{
  "country": "Japan",
  "latitude": 36.6485258,
  "longitude": 138.1950371,
  "city": "Nagano"
},
{
  "country": "Italy",
  "latitude": 37.8516366,
  "longitude": 15.2853127,
  "city": "Taormina"
},
{
  "country": "Sri Lanka",
  "latitude": 6.0243383,
  "longitude": 80.79407259999999,
  "city": "Tangalle"
},
{
  "country": "Canada",
  "latitude": 51.04473309999999,
  "longitude": -114.0718831,
  "city": "Calgary"
},
{
  "country": "Germany",
  "latitude": 53.5763876,
  "longitude": 9.8619377,
  "city": "20"
},
{
  "country": "Slovenia",
  "latitude": 46.3796902,
  "longitude": 14.6285177,
  "city": "9"
},
{
  "country": "Australia",
  "latitude": -34.9284989,
  "longitude": 138.6007456,
  "city": "Adelaide"
},
{
  "country": "Australia",
  "latitude": -19.1385305,
  "longitude": 146.8338546,
  "city": "Magnetic Island"
},
{
  "country": "Guatemala",
  "latitude": 17.2248941,
  "longitude": -89.61103779999999,
  "city": "Tikal"
},
{
  "country": "Sri Lanka",
  "latitude": 6.1394676,
  "longitude": 80.10628609999999,
  "city": "Hikkaduwa"
},
{
  "country": "Bolivia",
  "latitude": -20.1337772,
  "longitude": -67.48913449999999,
  "city": "Uyuni Salt Flat"
},
{
  "country": "New Zealand",
  "latitude": -44.6942992,
  "longitude": 169.1417356,
  "city": "Wānaka"
},
{
  "country": "Guatemala",
  "latitude": 14.5534448,
  "longitude": -90.94265299999999,
  "city": "Acatenango"
},
{
  "country": "Croatia",
  "latitude": 45.3270631,
  "longitude": 14.442176,
  "city": "Rijeka"
},
{
  "country": "Thailand",
  "latitude": 8.4637077,
  "longitude": 98.7150831,
  "city": "Khao Yai"
},
{
  "country": "Laos",
  "latitude": 17.4030206,
  "longitude": 104.8337879,
  "city": "Thakhek"
},
{
  "country": "France",
  "latitude": 43.610769,
  "longitude": 3.876716,
  "city": "Montpellier"
},
{
  "country": "Greece",
  "latitude": 40.6400629,
  "longitude": 22.9444191,
  "city": "Thessaloniki"
},
{
  "country": "North Macedonia",
  "latitude": 41.9981294,
  "longitude": 21.4254355,
  "city": "Skopje"
},
{
  "country": "Poland",
  "latitude": 49.290693,
  "longitude": 19.9504689,
  "city": "10"
},
{
  "country": "Greece",
  "latitude": 35.240117,
  "longitude": 24.8092691,
  "city": "Crete"
},
{
  "country": "United States",
  "latitude": 36.4863668,
  "longitude": -118.5657516,
  "city": "Sequoia National Park"
},
{
  "country": "Morocco",
  "latitude": 31.0801676,
  "longitude": -4.013361,
  "city": "Merzouga"
},
{
  "country": "United States",
  "latitude": 44.4279684,
  "longitude": -110.5884542,
  "city": "Yellowstone National Park"
},
{
  "country": "United Kingdom",
  "latitude": 51.4700223,
  "longitude": -0.4542955,
  "city": "Heathrow Airport"
},
{
  "country": "Canada",
  "latitude": 51.1784304,
  "longitude": -115.5707903,
  "city": "Banff"
},
{
  "country": "United States",
  "latitude": 39.9525839,
  "longitude": -75.1652215,
  "city": "Philadelphia"
},
{
  "country": "Morocco",
  "latitude": 35.168796,
  "longitude": -5.268364099999999,
  "city": "Chefchaouen"
},
{
  "country": "Netherlands",
  "latitude": 51.42314229999999,
  "longitude": 5.462289699999999,
  "city": "Eindhoven"
},
{
  "country": "Vietnam",
  "latitude": 10.0451618,
  "longitude": 105.7468535,
  "city": "Can Tho"
},
{
  "country": "Norway",
  "latitude": 58.15991189999999,
  "longitude": 8.0182064,
  "city": "Kristiansand"
},
{
  "country": "Colombia",
  "latitude": 3.2323761,
  "longitude": -75.16879399999999,
  "city": "Tatacoa Desert"
},
{
  "country": "Thailand",
  "latitude": 7.370857000000001,
  "longitude": 99.2979641,
  "city": "Ko Muk"
},
{
  "country": "Angola",
  "latitude": 36.8968908,
  "longitude": 30.7133233,
  "city": "Antalya"
},
{
  "country": "Indonesia",
  "latitude": -0.789275,
  "longitude": 113.921327,
  "city": "Indonesia"
},
{
  "country": "Argentina",
  "latitude": -54.8019121,
  "longitude": -68.3029511,
  "city": "Ushuaia"
},
{
  "country": "Greece",
  "latitude": 36.72257820000001,
  "longitude": 25.2825598,
  "city": "Ios"
},
{
  "country": "Kenya",
  "latitude": -1.2920659,
  "longitude": 36.8219462,
  "city": "Nairobi"
},
{
  "country": "Japan",
  "latitude": 43.0617713,
  "longitude": 141.3544506,
  "city": "Sapporo"
},
{
  "country": "Japan",
  "latitude": 35.4849415,
  "longitude": 138.7946315,
  "city": "12"
},
{
  "country": "San Marino",
  "latitude": 43.94236,
  "longitude": 12.457777,
  "city": "San Marino"
},
{
  "country": "Switzerland",
  "latitude": 47.5595986,
  "longitude": 7.5885761,
  "city": "Basel"
},
{
  "country": "New Zealand",
  "latitude": -44.0060533,
  "longitude": 170.4793485,
  "city": "Lake Tekapo"
},
{
  "country": "Mexico",
  "latitude": 21.0417033,
  "longitude": -86.8740062,
  "city": "Cancun International Airport"
},
{
  "country": "Indonesia",
  "latitude": -7.875384899999999,
  "longitude": 110.4262088,
  "city": "Special Region of Yogyakarta"
},
{
  "country": "Portugal",
  "latitude": 38.8028687,
  "longitude": -9.3816589,
  "city": "Sintra"
},
{
  "country": "Italy",
  "latitude": 43.46328390000001,
  "longitude": 11.8796336,
  "city": "Arezzo"
},
{
  "country": "New Zealand",
  "latitude": -38.6842862,
  "longitude": 176.0704465,
  "city": "Taupō"
},
{
  "country": "Indonesia",
  "latitude": 3.5552618,
  "longitude": 98.1447804,
  "city": "Bukit Lawang"
},
{
  "country": "Thailand",
  "latitude": 7.9263143,
  "longitude": 98.27359279999999,
  "city": "6"
},
{
  "country": "United States",
  "latitude": 40.7607793,
  "longitude": -111.8910474,
  "city": "Salt Lake City"
},
{
  "country": "Colombia",
  "latitude": -4.203164999999999,
  "longitude": -69.935907,
  "city": "Leticia"
},
{
  "country": "United States",
  "latitude": 21.3098845,
  "longitude": -157.8581401,
  "city": "Honolulu"
},
{
  "country": "Portugal",
  "latitude": 32.8554097,
  "longitude": -17.1529908,
  "city": "Portugal"
},
{
  "country": "Italy",
  "latitude": 37.5999938,
  "longitude": 14.0153557,
  "city": "Sicily"
},
{
  "country": "Canada",
  "latitude": 43.0895577,
  "longitude": -79.0849436,
  "city": "Niagara Falls"
},
{
  "country": "Indonesia",
  "latitude": -8.5298984,
  "longitude": 115.5074108,
  "city": "Padangbai"
},
{
  "country": "United States",
  "latitude": 45.515232,
  "longitude": -122.6783853,
  "city": "Portland"
},
{
  "country": "Switzerland",
  "latitude": 46.818188,
  "longitude": 8.227511999999999,
  "city": "Switzerland"
},
{
  "country": "France",
  "latitude": 51.0205557,
  "longitude": 2.1921865,
  "city": "France"
},
{
  "country": "Italy",
  "latitude": 38.0337046,
  "longitude": 14.0174436,
  "city": "Cefalù"
},
{
  "country": "United States",
  "latitude": 34.134728,
  "longitude": -116.3130661,
  "city": "Joshua Tree"
},
{
  "country": "Croatia",
  "latitude": 45.0811661,
  "longitude": 13.6387067,
  "city": "Rovinj"
},
{
  "country": "Switzerland",
  "latitude": 47.4612352,
  "longitude": 8.5534976,
  "city": "Zurich Airport"
},
{
  "country": "Albania",
  "latitude": 40.4660668,
  "longitude": 19.491356,
  "city": "Vlorë"
},
{
  "country": "Norway",
  "latitude": 58.9699756,
  "longitude": 5.7331073,
  "city": "Stavanger"
},
{
  "country": "Spain",
  "latitude": 36.746209,
  "longitude": -5.161225099999999,
  "city": "Ronda"
},
{
  "country": "Brazil",
  "latitude": -13.3781235,
  "longitude": -38.91658090000001,
  "city": "7"
},
{
  "country": "Albania",
  "latitude": 40.0672874,
  "longitude": 20.1045229,
  "city": "Gjirokaster"
},
{
  "country": "United States",
  "latitude": 33.8302961,
  "longitude": -116.5452921,
  "city": "Palm Springs"
},
{
  "country": "Italy",
  "latitude": 46.4982953,
  "longitude": 11.3547582,
  "city": "Bolzano"
},
{
  "country": "Costa Rica",
  "latitude": 10.6345964,
  "longitude": -85.4406747,
  "city": "Liberia"
},
{
  "country": "Iceland",
  "latitude": 63.4186315,
  "longitude": -19.0060479,
  "city": "Vik"
},
{
  "country": "Indonesia",
  "latitude": -8.2192335,
  "longitude": 114.3692267,
  "city": "Banyuwangi"
},
{
  "country": "Indonesia",
  "latitude": -8.7184926,
  "longitude": 115.1686322,
  "city": "Kuta Beach"
},
{
  "country": "Germany",
  "latitude": 49.4521018,
  "longitude": 11.0766654,
  "city": "Nuremberg"
},
{
  "country": "Ireland",
  "latitude": 53.274001,
  "longitude": -9.051266199999999,
  "city": "Galway"
},
{
  "country": "Portugal",
  "latitude": 32.76070740000001,
  "longitude": -16.9594723,
  "city": "Madeira"
},
{
  "country": "Namibia",
  "latitude": -22.5608807,
  "longitude": 17.0657549,
  "city": "Windhoek"
},
{
  "country": "Thailand",
  "latitude": 8.6557757,
  "longitude": 98.3964938,
  "city": "Phang-nga"
},
{
  "country": "Italy",
  "latitude": 43.2339704,
  "longitude": 11.5606307,
  "city": "Asciano"
},
{
  "country": "Japan",
  "latitude": 34.6900806,
  "longitude": 135.1956311,
  "city": "Kobe"
},
{
  "country": "Argentina",
  "latitude": -25.695259,
  "longitude": -54.4366662,
  "city": "Misiones Province"
},
{
  "country": "Vietnam",
  "latitude": 16.467397,
  "longitude": 107.5905326,
  "city": "Thua Thien Hue"
},
{
  "country": "United Kingdom",
  "latitude": 52.48624299999999,
  "longitude": -1.890401,
  "city": "Birmingham"
},
{
  "country": "Sri Lanka",
  "latitude": 6.2791538,
  "longitude": 81.2876691,
  "city": "Tissamaharama"
},
{
  "country": "Spain",
  "latitude": 36.5102831,
  "longitude": -4.8852579,
  "city": "Marbella"
},
{
  "country": "Italy",
  "latitude": 37.0754739,
  "longitude": 15.2865861,
  "city": "Syracuse"
},
{
  "country": "Thailand",
  "latitude": 8.099280199999999,
  "longitude": 98.98319479999999,
  "city": "Krabi International Airport"
},
{
  "country": "Italy",
  "latitude": 41.122234,
  "longitude": 16.8718008,
  "city": "11"
},
{
  "country": "Italy",
  "latitude": 40.99489459999999,
  "longitude": 17.22261,
  "city": "Polignano a Mare"
},
{
  "country": "France",
  "latitude": 43.2676808,
  "longitude": 6.640710899999999,
  "city": "Saint-Tropez"
},
{
  "country": "Ecuador",
  "latitude": -0.3831059167914707,
  "longitude": -90.42333442620028,
  "city": "Galápagos Islands"
},
{
  "country": "United States",
  "latitude": 38.3498195,
  "longitude": -81.6326234,
  "city": "Charleston"
},
{
  "country": "Peru",
  "latitude": -15.6388455,
  "longitude": -71.60204379999999,
  "city": "Chivay"
},
{
  "country": "Indonesia",
  "latitude": -7.752020600000001,
  "longitude": 110.4914674,
  "city": "16"
},
{
  "country": "New Zealand",
  "latitude": -42.3994483,
  "longitude": 173.6799111,
  "city": "Kaikōura"
},
{
  "country": "Vietnam",
  "latitude": 17.4659391,
  "longitude": 106.5983958,
  "city": "Đồng Hới"
},
{
  "country": "Indonesia",
  "latitude": -8.485465999999999,
  "longitude": 116.0472995,
  "city": "Senggigi"
},
{
  "country": "Indonesia",
  "latitude": -8.3470468,
  "longitude": 116.0561653,
  "city": "Gili Meno island"
},
{
  "country": "Netherlands",
  "latitude": 52.0704978,
  "longitude": 4.3006999,
  "city": "The Hague"
},
{
  "country": "Thailand",
  "latitude": 11.822702,
  "longitude": 102.4781873,
  "city": "Ko Mak"
},
{
  "country": "Spain",
  "latitude": 38.3459963,
  "longitude": -0.4906855,
  "city": "Alicante"
},
{
  "country": "United States",
  "latitude": 35.1495343,
  "longitude": -90.0489801,
  "city": "Memphis"
},
{
  "country": "Australia",
  "latitude": -25.274398,
  "longitude": 133.775136,
  "city": "Australia"
},
{
  "country": "United Kingdom",
  "latitude": 53.4083714,
  "longitude": -2.9915726,
  "city": "Liverpool"
},
{
  "country": "United States",
  "latitude": 33.4483771,
  "longitude": -112.0740373,
  "city": "Phoenix"
},
{
  "country": "Sri Lanka",
  "latitude": 6.4184828,
  "longitude": 80.823938,
  "city": "Udawalawa"
},
{
  "country": "France",
  "latitude": 43.774481,
  "longitude": 7.497540000000001,
  "city": "Menton"
},
{
  "country": "Germany",
  "latitude": 51.2876146,
  "longitude": 6.7667912,
  "city": "Düsseldorf International Airport"
},
{
  "country": "Japan",
  "latitude": 26.1201911,
  "longitude": 127.7025012,
  "city": "Okinawa"
},
{
  "country": "Peru",
  "latitude": -14.07546,
  "longitude": -75.7341811,
  "city": "Ica"
},
{
  "country": "Sri Lanka",
  "latitude": 6.840407799999999,
  "longitude": 81.8368478,
  "city": "Arugam Bay Beach"
},
{
  "country": "Japan",
  "latitude": 36.204824,
  "longitude": 138.252924,
  "city": "Japan"
},
{
  "country": "United States",
  "latitude": 36.8619103,
  "longitude": -111.3743302,
  "city": "Antelope Canyon"
},
{
  "country": "Morocco",
  "latitude": 33.9715904,
  "longitude": -6.8498129,
  "city": "Rabat"
},
{
  "country": "United Kingdom",
  "latitude": 57.2736278,
  "longitude": -6.2155022,
  "city": "Skye"
},
{
  "country": "United States",
  "latitude": 36.0997631,
  "longitude": -112.1124846,
  "city": "Grand Canyon"
},
{
  "country": "Italy",
  "latitude": 43.4676324,
  "longitude": 11.0434909,
  "city": "San Gimignano"
},
{
  "country": "Vietnam",
  "latitude": 13.7829673,
  "longitude": 109.2196634,
  "city": "Quy Nhon"
},
{
  "country": "Italy",
  "latitude": 40.92357639999999,
  "longitude": 9.4964429,
  "city": "Olbia"
},
{
  "country": "New Zealand",
  "latitude": -41.2707886,
  "longitude": 173.2809786,
  "city": "Nelson"
},
{
  "country": "Germany",
  "latitude": 50.0379326,
  "longitude": 8.562151799999999,
  "city": "Frankfurt Airport"
},
{
  "country": "Colombia",
  "latitude": 10.7,
  "longitude": -74.2166,
  "city": "Ciudad Perdida"
},
{
  "country": "Canada",
  "latitude": 52.8736786,
  "longitude": -118.0813581,
  "city": "Jasper"
},
{
  "country": "Chile",
  "latitude": -51.25325729999999,
  "longitude": -72.35167659999999,
  "city": "Torres del Paine"
},
{
  "country": "Germany",
  "latitude": 51.165691,
  "longitude": 10.451526,
  "city": "Germany"
},
{
  "country": "Japan",
  "latitude": 35.3606234,
  "longitude": 138.727367,
  "city": "Fujinomiya"
},
{
  "country": "Colombia",
  "latitude": 10.19701320165559,
  "longitude": -75.76040007449183,
  "city": "Rosario Islands"
},
{
  "country": "Ecuador",
  "latitude": -0.6837540999999999,
  "longitude": -78.4371901,
  "city": "Cotopaxi"
},
{
  "country": "Mexico",
  "latitude": 20.5071703,
  "longitude": -86.9446237,
  "city": "San Miguel de Cozumel"
},
{
  "country": "Brazil",
  "latitude": -23.2197106,
  "longitude": -44.7167452,
  "city": "Paraty"
},
{
  "country": "Thailand",
  "latitude": 8.657862600000001,
  "longitude": 97.6466734,
  "city": "Similan Islands"
},
{
  "country": "Japan",
  "latitude": 32.7503334,
  "longitude": 129.8778888,
  "city": "Nagasaki"
},
{
  "country": "Thailand",
  "latitude": 7.6804638,
  "longitude": 98.7687699,
  "city": "Ko Phi Phi Lee"
},
{
  "country": "Italy",
  "latitude": 45.9641291,
  "longitude": 9.246164199999999,
  "city": "Bellagio"
},
{
  "country": "Italy",
  "latitude": 40.6327278,
  "longitude": 17.9417616,
  "city": "Brindisi"
},
{
  "country": "Spain",
  "latitude": 40.46366700000001,
  "longitude": -3.74922,
  "city": "Spain"
},
{
  "country": "Italy",
  "latitude": 41.9027008,
  "longitude": 12.4962352,
  "city": "Metropolitan City of Rome"
},
{
  "country": "Jordan",
  "latitude": 30.3216354,
  "longitude": 35.4801251,
  "city": "Wadi Musa"
},
{
  "country": "Canada",
  "latitude": 50.11616859999999,
  "longitude": -122.9535117,
  "city": "Whistler"
},
{
  "country": "Thailand",
  "latitude": 12.9379491,
  "longitude": 100.8828395,
  "city": "Pattaya Beach"
},
{
  "country": "Chile",
  "latitude": -53.1633845,
  "longitude": -70.9078263,
  "city": "Punta Arenas"
},
{
  "country": "Chile",
  "latitude": -33.047238,
  "longitude": -71.61268849999999,
  "city": "Valparaíso"
},
{
  "country": "United Kingdom",
  "latitude": 56.81981700000001,
  "longitude": -5.105218,
  "city": "Fort William"
},
{
  "country": "Australia",
  "latitude": -17.869444,
  "longitude": 146.106944,
  "city": "Mission Beach"
},
{
  "country": "Morocco",
  "latitude": 31.047043,
  "longitude": -7.131899600000001,
  "city": "Aït Benhaddou"
},
{
  "country": "Italy",
  "latitude": 40.7295235,
  "longitude": 17.5779979,
  "city": "Ostuni"
},
{
  "country": "British Indian Ocean Territory",
  "latitude": 9.9312328,
  "longitude": 76.26730409999999,
  "city": "Kochi"
},
{
  "country": "Slovenia",
  "latitude": 46.363598,
  "longitude": 14.0938053,
  "city": "Lake Bled"
},
{
  "country": "Mexico",
  "latitude": 20.6596988,
  "longitude": -103.3496092,
  "city": "Guadalajara"
},
{
  "country": "Australia",
  "latitude": -25.2881539,
  "longitude": 152.7676633,
  "city": "Hervey Bay"
},
{
  "country": "Laos",
  "latitude": 13.975873,
  "longitude": 105.9200531,
  "city": "Don Det"
},
{
  "country": "Morocco",
  "latitude": 35.7594651,
  "longitude": -5.833954299999999,
  "city": "Tangier"
},
{
  "country": "South Africa",
  "latitude": -33.9608369,
  "longitude": 25.6022423,
  "city": "Gqeberha"
},
{
  "country": "Malaysia",
  "latitude": 2.7902494,
  "longitude": 104.1698463,
  "city": "Tioman Island"
},
{
  "country": "Belgium",
  "latitude": 51.0547103,
  "longitude": 3.7261627,
  "city": "4"
},
{
  "country": "Austria",
  "latitude": 47.516231,
  "longitude": 14.550072,
  "city": "Austria"
},
{
  "country": "Switzerland",
  "latitude": 46.0207133,
  "longitude": 7.749117000000001,
  "city": "Zermatt"
},
{
  "country": "Portugal",
  "latitude": 40.2033145,
  "longitude": -8.4102573,
  "city": "Coimbra"
},
{
  "country": "France",
  "latitude": 43.604652,
  "longitude": 1.444209,
  "city": "Toulouse"
},
{
  "country": "Thailand",
  "latitude": 8.2445516,
  "longitude": 98.56350619999999,
  "city": "Phang Nga Bay"
},
{
  "country": "Indonesia",
  "latitude": -8.2401299,
  "longitude": 115.3774944,
  "city": "Mount Batur"
},
{
  "country": "Nepal",
  "latitude": 28.2095831,
  "longitude": 83.9855674,
  "city": "Pokhara"
},
{
  "country": "United Kingdom",
  "latitude": 51.3781018,
  "longitude": -2.3596827,
  "city": "Bath"
},
{
  "country": "Switzerland",
  "latitude": 46.5935058,
  "longitude": 7.9090981,
  "city": "Lauterbrunnen"
},
{
  "country": "Israel",
  "latitude": 31.768319,
  "longitude": 35.21371,
  "city": "Jerusalem"
},
{
  "country": "Thailand",
  "latitude": 18.767749,
  "longitude": 98.9640088,
  "city": "Chiang Mai International Airport"
},
{
  "country": "Brazil",
  "latitude": -12.9777334,
  "longitude": -38.501648,
  "city": "Salvador"
},
{
  "country": "South Africa",
  "latitude": -34.05748920000001,
  "longitude": 23.3644925,
  "city": "Plettenberg Bay"
},
{
  "country": "Albania",
  "latitude": 41.153332,
  "longitude": 20.168331,
  "city": "Albania"
},
{
  "country": "Iceland",
  "latitude": 64.963051,
  "longitude": -19.020835,
  "city": "Iceland"
},
{
  "country": "Saudi Arabia",
  "latitude": 21.485811,
  "longitude": 39.19250479999999,
  "city": "Jeddah"
},
{
  "country": "Lithuania",
  "latitude": 54.6871555,
  "longitude": 25.2796514,
  "city": "Vilnius"
},
{
  "country": "Italy",
  "latitude": 40.7864131,
  "longitude": 17.240936,
  "city": "Alberobello"
},
{
  "country": "Switzerland",
  "latitude": 46.624164,
  "longitude": 8.0413962,
  "city": "Grindelwald"
},
{
  "country": "United States",
  "latitude": 35.1982836,
  "longitude": -111.651302,
  "city": "Flagstaff"
},
{
  "country": "Argentina",
  "latitude": -25.5971635,
  "longitude": -54.578599,
  "city": "Puerto Iguazú"
},
{
  "country": "France",
  "latitude": 43.94931700000001,
  "longitude": 4.805528,
  "city": "Avignon"
},
{
  "country": "Italy",
  "latitude": 46.5404711,
  "longitude": 12.1356524,
  "city": "Cortina d'Ampezzo"
},
{
  "country": "Austria",
  "latitude": 48.211076,
  "longitude": 16.393286,
  "city": "13"
},
{
  "country": "Morocco",
  "latitude": 30.4277547,
  "longitude": -9.5981072,
  "city": "Agadir"
},
{
  "country": "Italy",
  "latitude": 39.2238411,
  "longitude": 9.1216613,
  "city": "Cagliari"
},
{
  "country": "Poland",
  "latitude": 54.35202520000001,
  "longitude": 18.6466384,
  "city": "Gdańsk"
},
{
  "country": "Australia",
  "latitude": -33.3856304,
  "longitude": 150.4865272,
  "city": "Blue Mountains"
},
{
  "country": "Guatemala",
  "latitude": 13.9185706,
  "longitude": -91.07477820000001,
  "city": "El Paredon"
},
{
  "country": "United Kingdom",
  "latitude": 51.1536621,
  "longitude": -0.1820629,
  "city": "Gatwick Airport, LGW"
},
{
  "country": "Ireland",
  "latitude": 51.8985143,
  "longitude": -8.4756035,
  "city": "Cork"
},
{
  "country": "Thailand",
  "latitude": 18.2826948,
  "longitude": 100.8677256,
  "city": "Chiang Khong"
},
{
  "country": "Guatemala",
  "latitude": 14.7404929,
  "longitude": -91.1520965,
  "city": "Panajachel"
},
{
  "country": "Germany",
  "latitude": 49.760357,
  "longitude": 9.7106087,
  "city": "23"
},
{
  "country": "United States",
  "latitude": 32.0808989,
  "longitude": -81.091203,
  "city": "Savannah"
},
{
  "country": "Albania",
  "latitude": 40.1034715,
  "longitude": 19.7502384,
  "city": "Himarë"
},
{
  "country": "Japan",
  "latitude": 36.7198987,
  "longitude": 139.6982361,
  "city": "Nikko"
},
{
  "country": "Georgia",
  "latitude": 41.6938026,
  "longitude": 44.80151679999999,
  "city": "Tbilisi"
},
{
  "country": "Denmark",
  "latitude": 57.58695299999999,
  "longitude": 9.9668379,
  "city": "Hirtshals"
},
{
  "country": "United States",
  "latitude": 36.9741171,
  "longitude": -122.0307963,
  "city": "Santa Cruz"
},
{
  "country": "Costa Rica",
  "latitude": 10.4539873,
  "longitude": -84.01938609999999,
  "city": "Puerto Viejo de Sarapiqui"
},
{
  "country": "South Africa",
  "latitude": -33.9321045,
  "longitude": 18.860152,
  "city": "Stellenbosch"
},
{
  "country": "Egypt",
  "latitude": 25.6872431,
  "longitude": 32.6396357,
  "city": "Luxor"
},
{
  "country": "United States",
  "latitude": 30.267153,
  "longitude": -97.7430608,
  "city": "Austin"
},
{
  "country": "Guatemala",
  "latitude": 15.5336452,
  "longitude": -89.9591932,
  "city": "Semuc Champey Natural Monument"
},
{
  "country": "United States",
  "latitude": 35.189443,
  "longitude": -114.0530065,
  "city": "Kingman"
},
{
  "country": "Norway",
  "latitude": 63.4305149,
  "longitude": 10.3950528,
  "city": "Trondheim"
},
{
  "country": "China",
  "latitude": 31.230416,
  "longitude": 121.473701,
  "city": "Shanghai"
},
{
  "country": "Malaysia",
  "latitude": 5.876055000000001,
  "longitude": 117.9495461,
  "city": "Sepilok"
},
{
  "country": "Japan",
  "latitude": 34.6555312,
  "longitude": 133.919795,
  "city": "Okayama"
},
{
  "country": "Gibraltar",
  "latitude": 36.140751,
  "longitude": -5.353585,
  "city": "Gibraltar"
},
{
  "country": "United Arab Emirates",
  "latitude": 25.2531745,
  "longitude": 55.3656728,
  "city": "Dubai International Airport"
},
{
  "country": "Italy",
  "latitude": 40.901975,
  "longitude": 14.332644,
  "city": "Metropolitan City of Naples"
},
{
  "country": "Philippines",
  "latitude": 11.3358464,
  "longitude": 124.1156362,
  "city": "Malapascua Island"
},
{
  "country": "Brazil",
  "latitude": -21.2922457,
  "longitude": -50.3428431,
  "city": "State of São Paulo"
},
{
  "country": "Italy",
  "latitude": 43.0986938,
  "longitude": 11.7872467,
  "city": "Montepulciano"
},
{
  "country": "Angola",
  "latitude": 33.4996213,
  "longitude": 126.5311884,
  "city": "Jeju-si"
},
{
  "country": "Sri Lanka",
  "latitude": 6.837977100000001,
  "longitude": 81.8251687,
  "city": "Arugam Bay"
},
{
  "country": "Canada",
  "latitude": 46.8130816,
  "longitude": -71.20745959999999,
  "city": "Québec City"
},
{
  "country": "Italy",
  "latitude": 44.801485,
  "longitude": 10.3279036,
  "city": "Parma"
},
{
  "country": "Laos",
  "latitude": 14.09851228471102,
  "longitude": 105.8701892157641,
  "city": "Si Phan Don"
},
{
  "country": "China",
  "latitude": 39.904211,
  "longitude": 116.407395,
  "city": "Beijing"
},
{
  "country": "France",
  "latitude": 48.636063,
  "longitude": -1.511457,
  "city": "Mont Saint-Michel"
},
{
  "country": "Maldives",
  "latitude": 3.202778,
  "longitude": 73.22068,
  "city": "Maldives"
},
{
  "country": "New Zealand",
  "latitude": -45.41442929999999,
  "longitude": 167.7180426,
  "city": "Te Anau"
},
{
  "country": "South Africa",
  "latitude": -34.4092004,
  "longitude": 19.2504436,
  "city": "Hermanus"
},
{
  "country": "United Kingdom",
  "latitude": 54.978252,
  "longitude": -1.61778,
  "city": "Newcastle upon Tyne"
},
{
  "country": "United States",
  "latitude": 34.8697395,
  "longitude": -111.7609896,
  "city": "Sedona"
},
{
  "country": "Thailand",
  "latitude": 9.548436599999999,
  "longitude": 100.0630279,
  "city": "Samui International Airport"
},
{
  "country": "Laos",
  "latitude": 20.7089805,
  "longitude": 102.6754547,
  "city": "Muang Ngoy"
},
{
  "country": "Sri Lanka",
  "latitude": 7.940338400000001,
  "longitude": 81.0187984,
  "city": "Polonnaruwa"
},
{
  "country": "Uruguay",
  "latitude": -34.9055016,
  "longitude": -56.1851147,
  "city": "Montevideo"
},
{
  "country": "British Indian Ocean Territory",
  "latitude": 25.3176452,
  "longitude": 82.9739144,
  "city": "Varanasi"
},
{
  "country": "Italy",
  "latitude": 45.44146850000001,
  "longitude": 12.3152672,
  "city": "Metropolitan City of Venice"
},
{
  "country": "Portugal",
  "latitude": 37.7394207,
  "longitude": -25.6686725,
  "city": "Ponta Delgada"
},
{
  "country": "New Zealand",
  "latitude": -41.2954812,
  "longitude": 174.0028153,
  "city": "Picton"
},
{
  "country": "Thailand",
  "latitude": 8.976666999999999,
  "longitude": 98.80444399999999,
  "city": "Cheow Lan Lake"
},
{
  "country": "Sri Lanka",
  "latitude": 5.9623577,
  "longitude": 80.706811,
  "city": "Hiriketiya Beach"
},
{
  "country": "Malta",
  "latitude": 36.0447227,
  "longitude": 14.2409977,
  "city": "Victoria"
},
{
  "country": "Germany",
  "latitude": 54.3232927,
  "longitude": 10.1227652,
  "city": "Kiel"
},
{
  "country": "South Africa",
  "latitude": -34.0350856,
  "longitude": 23.0464693,
  "city": "Knysna"
},
{
  "country": "Brazil",
  "latitude": -25.5163356,
  "longitude": -54.58537639999999,
  "city": "Foz do Iguaçu"
},
{
  "country": "Montenegro",
  "latitude": 42.708678,
  "longitude": 19.37439,
  "city": "Montenegro"
},
{
  "country": "Bolivia",
  "latitude": -17.8145819,
  "longitude": -63.1560853,
  "city": "Santa Cruz de la Sierra"
},
{
  "country": "Colombia",
  "latitude": 4.570868,
  "longitude": -74.297333,
  "city": "Colombia"
},
{
  "country": "Italy",
  "latitude": 40.9525166,
  "longitude": 17.2985559,
  "city": "Monopoli"
},
{
  "country": "Mexico",
  "latitude": 15.6677291,
  "longitude": -96.5545185,
  "city": "Mazunte"
},
{
  "country": "Italy",
  "latitude": 40.3515155,
  "longitude": 18.1750161,
  "city": "Lecce"
},
{
  "country": "United States",
  "latitude": 35.24945659999999,
  "longitude": -112.1910031,
  "city": "Williams"
},
{
  "country": "Japan",
  "latitude": 34.9964883,
  "longitude": 135.744918,
  "city": "22"
},
{
  "country": "Japan",
  "latitude": 34.8154176,
  "longitude": 134.6855509,
  "city": "Himeji"
},
{
  "country": "Italy",
  "latitude": 45.6300625,
  "longitude": 8.7255307,
  "city": "Milan Malpensa Airport"
},
{
  "country": "Peru",
  "latitude": -14.8358687,
  "longitude": -74.9327583,
  "city": "Nazca"
},
{
  "country": "Indonesia",
  "latitude": -8.4112952,
  "longitude": 116.4573488,
  "city": "Mount Rinjani"
},
{
  "country": "Mexico",
  "latitude": 20.4229839,
  "longitude": -86.9223432,
  "city": "Cozumel"
},
{
  "country": "Philippines",
  "latitude": 14.5167708,
  "longitude": 121.0196198,
  "city": "G289+PR5"
},
{
  "country": "Singapore",
  "latitude": 1.3644202,
  "longitude": 103.9915308,
  "city": "Singapore Changi Airport"
},
{
  "country": "France",
  "latitude": 43.529742,
  "longitude": 5.447426999999999,
  "city": "Aix-en-Provence"
},
{
  "country": "Croatia",
  "latitude": 42.9297182,
  "longitude": 16.888644,
  "city": "Korčula"
},
{
  "country": "New Zealand",
  "latitude": -43.5949749,
  "longitude": 170.1417883,
  "city": "Aoraki / Mount Cook"
},
{
  "country": "Colombia",
  "latitude": 5.636499,
  "longitude": -73.527058,
  "city": "Villa de Leyva"
},
{
  "country": "Thailand",
  "latitude": 7.0086472,
  "longitude": 100.4746879,
  "city": "Hat Yai"
},
{
  "country": "South Africa",
  "latitude": -28.3726019,
  "longitude": 32.4141631,
  "city": "Saint Lucia"
},
{
  "country": "Portugal",
  "latitude": 37.0890719,
  "longitude": -8.2478796,
  "city": "Albufeira"
},
{
  "country": "Mexico",
  "latitude": 18.5001889,
  "longitude": -88.296146,
  "city": "Chetumal"
},
{
  "country": "Philippines",
  "latitude": 9.5630395,
  "longitude": 123.4159263,
  "city": "Oslob"
},
{
  "country": "Switzerland",
  "latitude": 46.5196535,
  "longitude": 6.6322734,
  "city": "Lausanne"
},
{
  "country": "Malta",
  "latitude": 35.937496,
  "longitude": 14.375416,
  "city": "Malta"
},
{
  "country": "Guatemala",
  "latitude": 15.783471,
  "longitude": -90.23075899999999,
  "city": "Guatemala"
},
{
  "country": "Albania",
  "latitude": 41.3245904,
  "longitude": 19.4564686,
  "city": "Durrës"
},
{
  "country": "Panama",
  "latitude": 8.140198999999999,
  "longitude": -81.26041400000001,
  "city": "Santa Catalina"
},
{
  "country": "France",
  "latitude": 45.899247,
  "longitude": 6.129384,
  "city": "Annecy"
},
{
  "country": "New Zealand",
  "latitude": -43.4606523,
  "longitude": 170.1860509,
  "city": "Franz Josef Glacier"
},
{
  "country": "Australia",
  "latitude": -20.059701,
  "longitude": 148.8809662,
  "city": "Whitsundays"
},
{
  "country": "British Indian Ocean Territory",
  "latitude": 20.593684,
  "longitude": 78.96288,
  "city": "India"
},
{
  "country": "United States",
  "latitude": 37.6283161,
  "longitude": -112.1676947,
  "city": "Bryce Canyon City"
},
{
  "country": "United Kingdom",
  "latitude": 54.59728500000001,
  "longitude": -5.93012,
  "city": "Belfast"
},
{
  "country": "Australia",
  "latitude": -20.2566514,
  "longitude": 148.9779578,
  "city": "Whitsunday Island"
},
{
  "country": "Albania",
  "latitude": 42.4045655,
  "longitude": 19.7680967,
  "city": "Theth"
},
{
  "country": "United States",
  "latitude": 24.5550593,
  "longitude": -81.7799871,
  "city": "Key West"
},
{
  "country": "Vietnam",
  "latitude": 10.9300676,
  "longitude": 108.10409,
  "city": "Phan Thiet"
},
{
  "country": "Vietnam",
  "latitude": 20.2185039,
  "longitude": 105.9175488,
  "city": "Ninh Hải"
},
{
  "country": "Egypt",
  "latitude": 27.2578957,
  "longitude": 33.8116067,
  "city": "Hurghada"
},
{
  "country": "Sri Lanka",
  "latitude": 6.4913796,
  "longitude": 81.4261714,
  "city": "Yala National Park Sri Lanka"
},
{
  "country": "Sri Lanka",
  "latitude": 5.9773782,
  "longitude": 80.4288487,
  "city": "Weligama"
},
{
  "country": "United States",
  "latitude": 34.0194543,
  "longitude": -118.4911912,
  "city": "Santa Monica"
},
{
  "country": "Italy",
  "latitude": 38.0173505,
  "longitude": 12.5365171,
  "city": "Trapani"
},
{
  "country": "United States",
  "latitude": 36.2704233,
  "longitude": -121.8080556,
  "city": "Big Sur"
},
{
  "country": "Bonaire, Sint Eustatius and Saba",
  "latitude": 35.8266161,
  "longitude": 129.235988,
  "city": "Gyeongju-si"
},
{
  "country": "Belgium",
  "latitude": 50.503887,
  "longitude": 4.469936,
  "city": "Belgium"
},
{
  "country": "Albania",
  "latitude": 40.1509656,
  "longitude": 19.6416121,
  "city": "Dhërmi"
},
{
  "country": "Poland",
  "latitude": 51.1078852,
  "longitude": 17.0385376,
  "city": "Wrocław"
},
{
  "country": "Spain",
  "latitude": 36.5210142,
  "longitude": -6.2804565,
  "city": "Cádiz"
},
{
  "country": "Germany",
  "latitude": 51.0504088,
  "longitude": 13.7372621,
  "city": "Dresden"
},
{
  "country": "Malta",
  "latitude": 35.8992375,
  "longitude": 14.5140996,
  "city": "Valletta"
},
{
  "country": "Netherlands",
  "latitude": 50.8513682,
  "longitude": 5.6909725,
  "city": "Maastricht"
},
{
  "country": "Bonaire, Sint Eustatius and Saba",
  "latitude": 37.4820053,
  "longitude": 126.9425172,
  "city": "South Korea"
},
{
  "country": "Peru",
  "latitude": -3.7436735,
  "longitude": -73.25163260000001,
  "city": "Iquitos"
},
{
  "country": "Fiji Islands",
  "latitude": -17.713371,
  "longitude": 178.065032,
  "city": "Fiji"
},
{
  "country": "Canada",
  "latitude": 51.6510712,
  "longitude": -120.0381726,
  "city": "Clearwater"
},
{
  "country": "Ecuador",
  "latitude": -1.8268465,
  "longitude": -80.75297309999999,
  "city": "Montanita"
},
{
  "country": "Vietnam",
  "latitude": 16.0472002,
  "longitude": 108.2199588,
  "city": "Hải Châu District"
},
{
  "country": "United States",
  "latitude": 19.8967662,
  "longitude": -155.5827818,
  "city": "Hawaii"
},
{
  "country": "India",
  "latitude": 26.2389469,
  "longitude": 73.02430939999999,
  "city": "Jodhpur"
},
{
  "country": "United Kingdom",
  "latitude": 51.454513,
  "longitude": -2.58791,
  "city": "Bristol"
},
{
  "country": "Thailand",
  "latitude": 9.1342049,
  "longitude": 99.143039,
  "city": "Surat Thani International Airport"
},
{
  "country": "Greece",
  "latitude": 39.706618,
  "longitude": 21.6288728,
  "city": "Kalabaka"
},
{
  "country": "Greece",
  "latitude": 35.3387352,
  "longitude": 25.1442126,
  "city": "Heraklion"
},
{
  "country": "Thailand",
  "latitude": 18.2855395,
  "longitude": 99.5127895,
  "city": "Lampang"
},
{
  "country": "United Kingdom",
  "latitude": 50.411001,
  "longitude": -5.1026484,
  "city": "33"
},
{
  "country": "Costa Rica",
  "latitude": 10.2992746,
  "longitude": -85.83710579999999,
  "city": "Tamarindo"
},
{
  "country": "Australia",
  "latitude": -26.65,
  "longitude": 153.066667,
  "city": "Sunshine Coast"
},
{
  "country": "Chile",
  "latitude": -35.675147,
  "longitude": -71.542969,
  "city": "Chile"
},
{
  "country": "Guatemala",
  "latitude": 15.8269363,
  "longitude": -88.75300759999999,
  "city": "Livingston"
},
{
  "country": "Norway",
  "latitude": 69.6497717,
  "longitude": 18.984122,
  "city": "Tromsø Municipality"
},
{
  "country": "Croatia",
  "latitude": 43.7350196,
  "longitude": 15.8952045,
  "city": "Šibenik"
},
{
  "country": "Thailand",
  "latitude": 14.712928,
  "longitude": 101.4244586,
  "city": "Pak Chong"
},
{
  "country": "Vietnam",
  "latitude": 20.9447439,
  "longitude": 107.1724543,
  "city": "Ha Long Natural heritage"
},
{
  "country": "Ecuador",
  "latitude": -0.048717,
  "longitude": -78.775198,
  "city": "Mindo Valley"
},
{
  "country": "Thailand",
  "latitude": 8.1191782,
  "longitude": 98.6050736,
  "city": "Ko Yao Noi"
},
{
  "country": "Thailand",
  "latitude": 12.5582501,
  "longitude": 101.4510911,
  "city": "Ko Samet"
},
{
  "country": "Australia",
  "latitude": -32.9282712,
  "longitude": 151.7816802,
  "city": "Newcastle"
},
{
  "country": "United States",
  "latitude": 37.1649827,
  "longitude": -113.0118848,
  "city": "Zion Canyon"
},
{
  "country": "Australia",
  "latitude": -31.4580174,
  "longitude": 152.8974657,
  "city": "Port Macquarie"
},
{
  "country": "United States",
  "latitude": 30.3321838,
  "longitude": -81.65565099999999,
  "city": "Jacksonville"
},
{
  "country": "New Zealand",
  "latitude": -45.8795455,
  "longitude": 170.5005957,
  "city": "Dunedin"
},
{
  "country": "Bolivia",
  "latitude": -19.5722805,
  "longitude": -65.7550063,
  "city": "Potosi"
},
{
  "country": "Portugal",
  "latitude": 39.6012147,
  "longitude": -9.0700991,
  "city": "Nazaré"
},
{
  "country": "United States",
  "latitude": 35.1427533,
  "longitude": -120.6412827,
  "city": "Pismo Beach"
},
{
  "country": "Malaysia",
  "latitude": 4.2274912,
  "longitude": 100.5577407,
  "city": "Pangkor Island"
},
{
  "country": "Peru",
  "latitude": -4.1034782,
  "longitude": -81.0451037,
  "city": "Máncora"
},
{
  "country": "United States",
  "latitude": 37.648546,
  "longitude": -118.972079,
  "city": "Mammoth Lakes"
},
{
  "country": "Colombia",
  "latitude": 4.8087174,
  "longitude": -75.690601,
  "city": "Pereira"
},
{
  "country": "Italy",
  "latitude": 43.7679178,
  "longitude": 11.2523792,
  "city": "Metropolitan City of Florence"
},
{
  "country": "Bonaire, Sint Eustatius and Saba",
  "latitude": 36.659246,
  "longitude": 29.126347,
  "city": "Fethiye"
},
{
  "country": "Sri Lanka",
  "latitude": 7.1801552,
  "longitude": 79.8842521,
  "city": "Bandaranaike International Airport"
},
{
  "country": "Cambodia",
  "latitude": 10.7581899,
  "longitude": 103.8216261,
  "city": "Sihanoukville"
},
{
  "country": "Mexico",
  "latitude": 21.5218973,
  "longitude": -87.37983220000001,
  "city": "Holbox"
},
{
  "country": "Bolivia",
  "latitude": -16.290154,
  "longitude": -63.58865299999999,
  "city": "Bolivia"
},
{
  "country": "Australia",
  "latitude": -23.698042,
  "longitude": 133.8807471,
  "city": "Alice Springs"
},
{
  "country": "Singapore",
  "latitude": 1.3112057,
  "longitude": 103.8772766,
  "city": "21"
},
{
  "country": "Indonesia",
  "latitude": -8.5253696,
  "longitude": 119.3658661,
  "city": "Komodo Island"
},
{
  "country": "Tanzania",
  "latitude": -3.3869254,
  "longitude": 36.6829927,
  "city": "Arusha"
},
{
  "country": "Mexico",
  "latitude": 16.7516009,
  "longitude": -93.1029939,
  "city": "Tuxtla Gutiérrez"
},
{
  "country": "Malaysia",
  "latitude": 4.3843668,
  "longitude": 102.4006033,
  "city": "Taman Negara National Park"
},
{
  "country": "Argentina",
  "latitude": -38.416097,
  "longitude": -63.61667199999999,
  "city": "Argentina"
},
{
  "country": "Italy",
  "latitude": 40.1208752,
  "longitude": 9.012892599999999,
  "city": "Sardinia"
},
{
  "country": "United States",
  "latitude": 29.4251905,
  "longitude": -98.4945922,
  "city": "San Antonio"
},
{
  "country": "Canada",
  "latitude": 45.4215296,
  "longitude": -75.69719309999999,
  "city": "Ottawa"
},
{
  "country": "United States",
  "latitude": 33.873415,
  "longitude": -115.9009923,
  "city": "Joshua Tree National Park"
},
{
  "country": "United States",
  "latitude": 27.950575,
  "longitude": -82.4571776,
  "city": "Tampa"
},
{
  "country": "Greece",
  "latitude": 36.4349631,
  "longitude": 28.2174829,
  "city": "Rhodes"
},
{
  "country": "Belize",
  "latitude": 17.189877,
  "longitude": -88.49765,
  "city": "Belize"
},
{
  "country": "Italy",
  "latitude": 37.3088512,
  "longitude": 13.5857528,
  "city": "Agrigento"
},
{
  "country": "France",
  "latitude": 43.58041799999999,
  "longitude": 7.125102,
  "city": "Antibes"
},
{
  "country": "United Kingdom",
  "latitude": 51.7520209,
  "longitude": -1.2577263,
  "city": "Oxford"
},
{
  "country": "Croatia",
  "latitude": 43.51638699999999,
  "longitude": 16.2501894,
  "city": "Trogir"
},
{
  "country": "South Africa",
  "latitude": -33.4442931,
  "longitude": 25.7448882,
  "city": "Addo Elephant National Park"
},
{
  "country": "South Africa",
  "latitude": -24.9327665,
  "longitude": 30.84415199999999,
  "city": "Graskop"
},
{
  "country": "Slovenia",
  "latitude": 46.151241,
  "longitude": 14.995463,
  "city": "Slovenia"
},
{
  "country": "Australia",
  "latitude": -27.4704528,
  "longitude": 153.0260341,
  "city": "Brisbane City"
},
{
  "country": "United Kingdom",
  "latitude": 57.1498891,
  "longitude": -2.0937528,
  "city": "Aberdeen"
},
{
  "country": "South Africa",
  "latitude": -33.6007225,
  "longitude": 22.2026347,
  "city": "Oudtshoorn"
},
{
  "country": "France",
  "latitude": 47.322047,
  "longitude": 5.04148,
  "city": "Dijon"
},
{
  "country": "Spain",
  "latitude": 42.812526,
  "longitude": -1.6457745,
  "city": "Pamplona"
},
{
  "country": "Vietnam",
  "latitude": 10.2431959,
  "longitude": 106.4464766,
  "city": "Phong Nẫm"
},
{
  "country": "El Salvador",
  "latitude": 13.9778279,
  "longitude": -89.56391190000001,
  "city": "Santa Ana"
},
{
  "country": "Portugal",
  "latitude": 39.1377868,
  "longitude": -9.3667097,
  "city": "14"
},
{
  "country": "Malaysia",
  "latitude": 5.586506,
  "longitude": 117.8500842,
  "city": "Kinabatangan"
},
{
  "country": "Thailand",
  "latitude": 12.0820667,
  "longitude": 102.3120304,
  "city": "Ko Chang"
},
{
  "country": "Japan",
  "latitude": 35.161484,
  "longitude": 138.67622,
  "city": "Fuji"
},
{
  "country": "Vietnam",
  "latitude": 22.7662056,
  "longitude": 104.9388853,
  "city": "Ha Giang"
},
{
  "country": "Slovenia",
  "latitude": 45.528319,
  "longitude": 13.5682895,
  "city": "Piran"
},
{
  "country": "Hungary",
  "latitude": 47.162494,
  "longitude": 19.503304,
  "city": "Hungary"
},
{
  "country": "Indonesia",
  "latitude": -8.5064817,
  "longitude": 115.2624187,
  "city": "F7V6+CX3"
},
{
  "country": "Costa Rica",
  "latitude": 9.8820222,
  "longitude": -85.5290361,
  "city": "Sámara"
},
{
  "country": "Italy",
  "latitude": 45.8578304,
  "longitude": 9.881997799999999,
  "city": "Province of Bergamo"
},
{
  "country": "India",
  "latitude": 12.9715987,
  "longitude": 77.5945627,
  "city": "Bengaluru"
},
{
  "country": "Norway",
  "latitude": 62.47222840000001,
  "longitude": 6.149482,
  "city": "Ålesund"
},
{
  "country": "Peru",
  "latitude": -8.106042799999999,
  "longitude": -79.0329727,
  "city": "Trujillo"
},
{
  "country": "Indonesia",
  "latitude": -7.614529200000001,
  "longitude": 110.7122465,
  "city": "Java"
},
{
  "country": "United Kingdom",
  "latitude": 56.68255989999999,
  "longitude": -5.1022713,
  "city": "Glencoe"
},
{
  "country": "United Kingdom",
  "latitude": 55.378051,
  "longitude": -3.435973,
  "city": "United Kingdom"
},
{
  "country": "Indonesia",
  "latitude": -6.178665,
  "longitude": 106.833102,
  "city": "19"
},
{
  "country": "Vatican City State (Holy See)",
  "latitude": 41.902916,
  "longitude": 12.453389,
  "city": "Vatican City"
},
{
  "country": "Costa Rica",
  "latitude": 9.431868099999999,
  "longitude": -84.16190759999999,
  "city": "Quepos"
},
{
  "country": "Ecuador",
  "latitude": -0.8583134,
  "longitude": -78.9033627,
  "city": "Quilotoa Lake"
},
{
  "country": "Peru",
  "latitude": -15.6225478,
  "longitude": -71.98014429999999,
  "city": "Cabanaconde"
},
{
  "country": "United States",
  "latitude": 33.9415889,
  "longitude": -118.40853,
  "city": "Los Angeles International Airport"
},
{
  "country": "Iceland",
  "latitude": 63.5320523,
  "longitude": -19.5113706,
  "city": "Skógafoss"
},
{
  "country": "Italy",
  "latitude": 44.0990492,
  "longitude": 9.737485099999999,
  "city": "Riomaggiore"
},
{
  "country": "Thailand",
  "latitude": 15.0499572,
  "longitude": 100.8903099,
  "city": "Lopburi"
},
{
  "country": "United States",
  "latitude": 25.790654,
  "longitude": -80.1300455,
  "city": "Miami Beach"
},
{
  "country": "Italy",
  "latitude": 45.6982642,
  "longitude": 9.6772698,
  "city": "Bergamo"
},
{
  "country": "France",
  "latitude": 50.95820819999999,
  "longitude": 1.8531907,
  "city": "17"
},
{
  "country": "Morocco",
  "latitude": 31.791702,
  "longitude": -7.092619999999999,
  "city": "Morocco"
},
{
  "country": "United Kingdom",
  "latitude": 53.9614205,
  "longitude": -1.0739108,
  "city": "York"
},
{
  "country": "United States",
  "latitude": 36.0160655,
  "longitude": -114.7377325,
  "city": "United States"
},
{
  "country": "United States",
  "latitude": 36.5755004,
  "longitude": -118.774821,
  "city": "Sequoia National Forest"
},
{
  "country": "Cyprus",
  "latitude": 34.77539489999999,
  "longitude": 32.4217786,
  "city": "Paphos"
},
{
  "country": "Iceland",
  "latitude": 64.24970259999999,
  "longitude": -15.2020076,
  "city": "Höfn"
},
{
  "country": "Italy",
  "latitude": 45.9893616,
  "longitude": 9.2899277,
  "city": "Varenna"
},
{
  "country": "Portugal",
  "latitude": 38.571431,
  "longitude": -7.913501999999999,
  "city": "Evora"
},
{
  "country": "Uzbekistan",
  "latitude": 41.2994958,
  "longitude": 69.2400734,
  "city": "Tashkent"
},
{
  "country": "Tanzania",
  "latitude": -6.135729500000001,
  "longitude": 39.3621196,
  "city": "Unguja"
},
{
  "country": "France",
  "latitude": 48.0793589,
  "longitude": 7.358511999999999,
  "city": "Colmar"
},
{
  "country": "Panama",
  "latitude": 8.6097836,
  "longitude": -80.1316927,
  "city": "Anton Valley"
},
{
  "country": "Ecuador",
  "latitude": 0.2343005,
  "longitude": -78.2610672,
  "city": "Otavalo"
},
{
  "country": "Sri Lanka",
  "latitude": 6.5766445,
  "longitude": 81.19399620000002,
  "city": "Wellawaya"
},
{
  "country": "Greece",
  "latitude": 35.5138298,
  "longitude": 24.0180367,
  "city": "Chania"
},
{
  "country": "United States",
  "latitude": 37.6213129,
  "longitude": -122.3789554,
  "city": "San Francisco International Airport"
},
{
  "country": "Australia",
  "latitude": -24.2125,
  "longitude": 151.903333,
  "city": "Agnes Water"
},
{
  "country": "Indonesia",
  "latitude": -8.4691756,
  "longitude": 116.4134873,
  "city": "Tetebatu"
},
{
  "country": "Japan",
  "latitude": 35.5170946,
  "longitude": 138.7517787,
  "city": "Lake Kawaguchi"
},
{
  "country": "Thailand",
  "latitude": 8.1110951,
  "longitude": 98.3064646,
  "city": "Phuket International Airport"
},
{
  "country": "Portugal",
  "latitude": 38.6970565,
  "longitude": -9.4222945,
  "city": "Cascais"
},
{
  "country": "Denmark",
  "latitude": 56.26392,
  "longitude": 9.501785,
  "city": "Denmark"
},
{
  "country": "Costa Rica",
  "latitude": 8.711884,
  "longitude": -83.66144000000001,
  "city": "Drake Bay"
},
{
  "country": "Iceland",
  "latitude": 63.61562319999999,
  "longitude": -19.9885688,
  "city": "Seljalandsfoss"
},
{
  "country": "Mexico",
  "latitude": 21.0190145,
  "longitude": -101.2573586,
  "city": "Guanajuato"
},
{
  "country": "Denmark",
  "latitude": 56.162939,
  "longitude": 10.203921,
  "city": "Aarhus"
},
{
  "country": "Cuba",
  "latitude": 22.6188131,
  "longitude": -83.7066289,
  "city": "Vinales"
},
{
  "country": "Argentina",
  "latitude": -32.9587022,
  "longitude": -60.69304159999999,
  "city": "Rosario"
},
{
  "country": "Germany",
  "latitude": 53.07929619999999,
  "longitude": 8.8016937,
  "city": "Bremen"
},
{
  "country": "South Africa",
  "latitude": -34.0221288,
  "longitude": 20.4414171,
  "city": "Swellendam"
},
{
  "country": "Australia",
  "latitude": -26.4135439,
  "longitude": 153.0505132,
  "city": "Noosaville"
},
{
  "country": "Thailand",
  "latitude": 8.108452699999999,
  "longitude": 98.5927384,
  "city": "49"
},
{
  "country": "Thailand",
  "latitude": 18.1587905,
  "longitude": 97.93141899999999,
  "city": "Mae Sariang"
},
{
  "country": "New Zealand",
  "latitude": -44.6716487,
  "longitude": 167.9261669,
  "city": "Milford Sound"
},
{
  "country": "Japan",
  "latitude": 33.2844614,
  "longitude": 131.4907093,
  "city": "Beppu"
},
{
  "country": "United States",
  "latitude": 35.0843859,
  "longitude": -106.650422,
  "city": "Albuquerque"
},
{
  "country": "Switzerland",
  "latitude": 46.0036778,
  "longitude": 8.951051999999999,
  "city": "Lugano"
},
{
  "country": "United States",
  "latitude": 38.733081,
  "longitude": -109.5925139,
  "city": "Arches National Park"
},
{
  "country": "France",
  "latitude": 50.95129000000001,
  "longitude": 1.858686,
  "city": "Calais"
},
{
  "country": "Italy",
  "latitude": 44.1068427,
  "longitude": 9.7284876,
  "city": "Manarola"
},
{
  "country": "Italy",
  "latitude": 40.2347393,
  "longitude": 18.1428669,
  "city": "Province of Lecce"
},
{
  "country": "Croatia",
  "latitude": 43.2937769,
  "longitude": 17.0215239,
  "city": "Makarska"
},
{
  "country": "Italy",
  "latitude": 44.1349211,
  "longitude": 9.684993500000001,
  "city": "Vernazza"
},
{
  "country": "Japan",
  "latitude": 35.7719867,
  "longitude": 140.3928501,
  "city": "Narita International Airport"
},
{
  "country": "Greece",
  "latitude": 37.7870331,
  "longitude": 20.8998759,
  "city": "Zakynthos"
},
{
  "country": "Norway",
  "latitude": 60.8607716,
  "longitude": 7.1117849,
  "city": "Flåm"
},
{
  "country": "Argentina",
  "latitude": -34.5869034,
  "longitude": -68.14314139999999,
  "city": "Mendoza Province"
},
{
  "country": "Namibia",
  "latitude": -22.6749351,
  "longitude": 14.5257611,
  "city": "Swakopmund"
},
{
  "country": "Costa Rica",
  "latitude": 10.4626262,
  "longitude": -84.7031794,
  "city": "Arenal Volcano"
},
{
  "country": "Ecuador",
  "latitude": -1.831239,
  "longitude": -78.18340599999999,
  "city": "Ecuador"
},
{
  "country": "France",
  "latitude": 50.62925,
  "longitude": 3.057256,
  "city": "Lille"
},
{
  "country": "Iceland",
  "latitude": 64.3270716,
  "longitude": -20.1199478,
  "city": "Gullfoss Falls"
},
{
  "country": "Mexico",
  "latitude": 23.634501,
  "longitude": -102.552784,
  "city": "Mexico"
},
{
  "country": "Panama",
  "latitude": 9.293417900000001,
  "longitude": -82.7347142,
  "city": "Bocas del Toro Province"
},
{
  "country": "Cuba",
  "latitude": 21.7960343,
  "longitude": -79.98081429999999,
  "city": "Trinidad"
},
{
  "country": "Iceland",
  "latitude": 63.9334611,
  "longitude": -21.0013833,
  "city": "Selfoss"
},
{
  "country": "Italy",
  "latitude": 43.399395,
  "longitude": 10.8660333,
  "city": "Volterra"
},
{
  "country": "United Kingdom",
  "latitude": 53.3554372,
  "longitude": -2.2772979,
  "city": "Manchester Airport"
},
{
  "country": "Costa Rica",
  "latitude": 9.7347856,
  "longitude": -82.84521459999999,
  "city": "Cahuita"
},
{
  "country": "Austria",
  "latitude": 47.070714,
  "longitude": 15.439504,
  "city": "Graz"
},